% program   : RTKLIB ver.2.4.3
% inp file  : /kaggle/input/precise-positioning-2024/ppc2024/train/nagoya1/rover.obs
% inp file  : /kaggle/input/precise-positioning-2024/ppc2024/train/nagoya1/base.obs
% inp file  : /kaggle/input/precise-positioning-2024/ppc2024/train/nagoya1/base.nav
% obs start : 2024/07/20 10:58:30.0 GPST (week2323 557910.0s)
% obs end   : 2024/07/20 11:15:20.0 GPST (week2323 558920.0s)
% ref pos   : 35.134709470, 136.977574270,  104.6528
%
% (lat/lon/height=WGS84/ellipsoidal,Q=1:fix,2:float,3:sbas,4:dgps,5:single,6:ppp,ns=# of satellites)
%  GPST        , latitude(deg),longitude(deg), height(m),  Q, ns,  sdn(m),  sde(m),  sdu(m), sdne(m), sdeu(m), sdun(m),age(s), ratio
2323,557910.000,  35.162721153, 136.899831579,   50.5423,  2, 24,  0.3112,  0.2934,  0.9608,  0.1228,  0.2435,  0.0357,  0.00,   1.7
2323,557910.200,  35.162721103, 136.899831607,   50.5822,  2, 24,  0.3112,  0.2934,  0.9608,  0.1228,  0.2435,  0.0358,  0.20,   1.8
2323,557910.400,  35.162721107, 136.899831581,   50.6174,  2, 24,  0.3112,  0.2934,  0.9608,  0.1228,  0.2435,  0.0358,  0.40,   1.8
2323,557910.600,  35.162720985, 136.899831582,   50.5559,  2, 24,  0.3112,  0.2934,  0.9608,  0.1228,  0.2435,  0.0358,  0.60,   1.7
2323,557910.800,  35.162721027, 136.899831764,   50.5705,  2, 24,  0.3112,  0.2934,  0.9608,  0.1228,  0.2435,  0.0358,  0.80,   1.8
2323,557911.000,  35.162719391, 136.899831896,   50.4956,  2, 24,  0.3112,  0.2934,  0.9608,  0.1228,  0.2436,  0.0358,  0.00,   1.8
2323,557911.200,  35.162719525, 136.899831874,   50.4802,  2, 24,  0.3112,  0.2934,  0.9608,  0.1228,  0.2436,  0.0358,  0.20,   1.7
2323,557911.400,  35.162719524, 136.899831998,   50.4884,  2, 24,  0.3112,  0.2934,  0.9609,  0.1228,  0.2436,  0.0359,  0.40,   1.8
2323,557911.600,  35.162719451, 136.899831900,   50.4814,  2, 24,  0.3112,  0.2934,  0.9609,  0.1228,  0.2436,  0.0359,  0.60,   1.7
2323,557911.800,  35.162719332, 136.899831843,   50.5058,  2, 24,  0.3112,  0.2934,  0.9609,  0.1228,  0.2436,  0.0359,  0.80,   1.8
2323,557912.000,  35.162719967, 136.899832701,   50.8486,  2, 24,  0.3112,  0.2934,  0.9609,  0.1228,  0.2436,  0.0359,  0.00,   1.8
2323,557912.200,  35.162719803, 136.899832692,   50.8408,  2, 24,  0.3112,  0.2934,  0.9609,  0.1228,  0.2436,  0.0359,  0.20,   1.9
2323,557912.400,  35.162719937, 136.899832645,   50.8840,  2, 24,  0.3112,  0.2934,  0.9609,  0.1228,  0.2436,  0.0360,  0.40,   1.7
2323,557912.600,  35.162719975, 136.899832536,   50.8539,  2, 24,  0.3112,  0.2934,  0.9609,  0.1228,  0.2436,  0.0360,  0.60,   1.8
2323,557912.800,  35.162719982, 136.899832599,   50.8300,  2, 24,  0.3112,  0.2934,  0.9609,  0.1228,  0.2436,  0.0360,  0.80,   1.8
2323,557913.000,  35.162720756, 136.899831756,   50.4204,  2, 24,  0.3112,  0.2934,  0.9609,  0.1228,  0.2436,  0.0360,  0.00,   1.8
2323,557913.200,  35.162720707, 136.899831969,   50.4246,  2, 24,  0.3112,  0.2934,  0.9609,  0.1228,  0.2437,  0.0360,  0.20,   1.8
2323,557913.400,  35.162720739, 136.899832180,   50.4024,  2, 24,  0.3112,  0.2934,  0.9609,  0.1228,  0.2437,  0.0360,  0.40,   1.8
2323,557913.600,  35.162720666, 136.899832264,   50.3673,  2, 24,  0.3112,  0.2934,  0.9610,  0.1228,  0.2437,  0.0361,  0.60,   1.8
2323,557913.800,  35.162720630, 136.899832322,   50.2937,  2, 24,  0.3112,  0.2934,  0.9610,  0.1227,  0.2437,  0.0361,  0.80,   1.9
2323,557914.000,  35.162720135, 136.899832629,   50.0186,  2, 24,  0.3112,  0.2934,  0.9610,  0.1227,  0.2437,  0.0361,  0.00,   1.8
2323,557914.200,  35.162720055, 136.899832733,   49.9895,  2, 24,  0.3112,  0.2934,  0.9610,  0.1227,  0.2437,  0.0361,  0.20,   1.8
2323,557914.400,  35.162719990, 136.899832663,   49.9542,  2, 24,  0.3112,  0.2934,  0.9610,  0.1227,  0.2437,  0.0361,  0.40,   1.8
2323,557914.600,  35.162719984, 136.899832754,   49.9134,  2, 24,  0.3112,  0.2934,  0.9610,  0.1227,  0.2437,  0.0361,  0.60,   1.8
2323,557914.800,  35.162720155, 136.899832527,   49.8262,  2, 24,  0.3112,  0.2934,  0.9610,  0.1227,  0.2437,  0.0362,  0.80,   1.8
2323,557915.000,  35.162720173, 136.899832979,   49.6715,  2, 24,  0.3112,  0.2934,  0.9610,  0.1227,  0.2437,  0.0362,  0.00,   1.9
2323,557915.200,  35.162720141, 136.899832959,   49.5644,  2, 24,  0.3112,  0.2934,  0.9610,  0.1227,  0.2438,  0.0362,  0.20,   1.8
2323,557915.400,  35.162719960, 136.899833024,   49.6155,  2, 24,  0.3112,  0.2934,  0.9610,  0.1227,  0.2438,  0.0362,  0.40,   1.8
2323,557915.600,  35.162719951, 136.899832898,   49.5360,  2, 24,  0.3112,  0.2934,  0.9610,  0.1227,  0.2438,  0.0362,  0.60,   1.9
2323,557915.800,  35.162719853, 136.899832993,   49.5134,  2, 24,  0.3112,  0.2934,  0.9611,  0.1227,  0.2438,  0.0363,  0.80,   1.8
2323,557916.000,  35.162720075, 136.899832868,   49.9725,  2, 24,  0.3112,  0.2934,  0.9611,  0.1227,  0.2438,  0.0363,  0.00,   1.7
2323,557916.200,  35.162719978, 136.899832922,   50.0045,  2, 24,  0.3112,  0.2934,  0.9611,  0.1227,  0.2438,  0.0363,  0.20,   1.8
2323,557916.400,  35.162719809, 136.899833068,   50.0911,  2, 24,  0.3112,  0.2934,  0.9611,  0.1227,  0.2438,  0.0363,  0.40,   1.7
2323,557916.600,  35.162719929, 136.899832877,   49.9678,  2, 24,  0.3112,  0.2934,  0.9611,  0.1227,  0.2438,  0.0363,  0.60,   1.7
2323,557916.800,  35.162719886, 136.899832767,   49.9224,  2, 24,  0.3112,  0.2934,  0.9611,  0.1227,  0.2438,  0.0363,  0.80,   1.8
2323,557917.000,  35.162720468, 136.899831073,   49.4468,  2, 24,  0.3046,  0.2875,  0.9353,  0.1370,  0.2157,  0.1240,  0.00,   1.8
2323,557917.200,  35.162720518, 136.899831007,   49.4249,  2, 24,  0.3046,  0.2875,  0.9353,  0.1370,  0.2157,  0.1240,  0.20,   1.8
2323,557917.400,  35.162720533, 136.899831036,   49.4057,  2, 24,  0.3046,  0.2875,  0.9353,  0.1370,  0.2158,  0.1240,  0.40,   1.8
2323,557917.600,  35.162720401, 136.899831094,   49.4619,  2, 24,  0.3046,  0.2875,  0.9353,  0.1370,  0.2158,  0.1240,  0.60,   1.8
2323,557917.800,  35.162720501, 136.899831167,   49.4983,  2, 24,  0.3046,  0.2875,  0.9354,  0.1370,  0.2158,  0.1240,  0.80,   1.8
2323,557918.000,  35.162720715, 136.899830387,   49.3648,  2, 24,  0.3046,  0.2875,  0.9354,  0.1370,  0.2158,  0.1240,  0.00,   1.9
2323,557918.200,  35.162720572, 136.899830415,   49.4270,  2, 24,  0.3046,  0.2875,  0.9354,  0.1370,  0.2158,  0.1240,  0.20,   1.9
2323,557918.400,  35.162720359, 136.899830299,   49.4693,  2, 24,  0.3046,  0.2876,  0.9354,  0.1370,  0.2158,  0.1240,  0.40,   1.9
2323,557918.600,  35.162720352, 136.899830191,   49.4963,  2, 24,  0.3046,  0.2876,  0.9354,  0.1370,  0.2158,  0.1240,  0.60,   1.9
2323,557918.800,  35.162720226, 136.899830094,   49.5100,  2, 24,  0.3046,  0.2876,  0.9354,  0.1370,  0.2158,  0.1240,  0.80,   1.8
2323,557919.000,  35.162719732, 136.899831080,   49.8620,  2, 24,  0.3041,  0.2831,  0.8964,  0.1337,  0.1817,  0.1035,  0.00,   1.9
2323,557919.200,  35.162719687, 136.899831165,   49.9356,  2, 24,  0.3041,  0.2831,  0.8964,  0.1337,  0.1817,  0.1035,  0.20,   1.9
2323,557919.400,  35.162719555, 136.899831087,   49.9264,  2, 24,  0.3041,  0.2831,  0.8964,  0.1337,  0.1818,  0.1035,  0.40,   1.9
2323,557919.600,  35.162719736, 136.899831078,   49.8943,  2, 24,  0.3041,  0.2831,  0.8964,  0.1337,  0.1818,  0.1035,  0.60,   1.9
2323,557919.800,  35.162719851, 136.899831014,   49.9008,  2, 24,  0.3041,  0.2831,  0.8964,  0.1337,  0.1818,  0.1035,  0.80,   1.9
2323,557920.000,  35.162720637, 136.899831836,   49.9892,  2, 24,  0.3041,  0.2831,  0.8964,  0.1337,  0.1818,  0.1035,  0.00,   1.9
2323,557920.200,  35.162720601, 136.899831919,   49.9866,  2, 24,  0.3041,  0.2831,  0.8964,  0.1337,  0.1818,  0.1035,  0.20,   2.0
2323,557920.400,  35.162720622, 136.899832227,   50.0451,  2, 24,  0.3041,  0.2831,  0.8964,  0.1337,  0.1818,  0.1036,  0.40,   1.9
2323,557920.600,  35.162720599, 136.899832304,   50.0277,  2, 24,  0.3041,  0.2831,  0.8964,  0.1337,  0.1818,  0.1036,  0.60,   1.9
2323,557920.800,  35.162720460, 136.899832451,   49.9920,  2, 24,  0.3041,  0.2831,  0.8965,  0.1337,  0.1818,  0.1036,  0.80,   1.9
2323,557921.000,  35.162719896, 136.899832356,   50.0712,  2, 24,  0.3041,  0.2831,  0.8965,  0.1337,  0.1819,  0.1036,  0.00,   1.6
2323,557921.200,  35.162719893, 136.899832333,   50.0547,  2, 24,  0.3041,  0.2831,  0.8965,  0.1337,  0.1819,  0.1036,  0.20,   1.9
2323,557921.400,  35.162719803, 136.899832483,   50.0729,  2, 24,  0.3041,  0.2831,  0.8965,  0.1337,  0.1819,  0.1036,  0.40,   1.9
2323,557921.600,  35.162719958, 136.899832340,   50.0977,  2, 24,  0.3041,  0.2831,  0.8965,  0.1337,  0.1819,  0.1036,  0.60,   1.9
2323,557921.800,  35.162719884, 136.899832459,   50.1296,  2, 24,  0.3041,  0.2831,  0.8965,  0.1337,  0.1819,  0.1036,  0.80,   1.8
2323,557922.000,  35.162720193, 136.899833030,   50.3733,  2, 24,  0.3046,  0.2876,  0.9356,  0.1369,  0.2160,  0.1241,  0.00,   1.9
2323,557922.200,  35.162720238, 136.899833182,   50.3524,  2, 24,  0.3046,  0.2876,  0.9356,  0.1369,  0.2160,  0.1241,  0.20,   2.0
2323,557922.400,  35.162720243, 136.899833101,   50.3663,  2, 24,  0.3047,  0.2876,  0.9356,  0.1369,  0.2160,  0.1241,  0.40,   1.9
2323,557922.600,  35.162720120, 136.899833354,   50.3669,  2, 24,  0.3047,  0.2876,  0.9356,  0.1369,  0.2161,  0.1241,  0.60,   2.0
2323,557922.800,  35.162720090, 136.899833595,   50.3589,  2, 24,  0.3047,  0.2876,  0.9356,  0.1369,  0.2161,  0.1241,  0.80,   1.9
2323,557923.000,  35.162720268, 136.899833153,   49.9878,  2, 24,  0.3042,  0.2831,  0.8966,  0.1337,  0.1820,  0.1036,  0.00,   1.8
2323,557923.200,  35.162720138, 136.899833116,   49.9108,  2, 24,  0.3042,  0.2831,  0.8966,  0.1337,  0.1820,  0.1036,  0.20,   1.8
2323,557923.400,  35.162720009, 136.899833021,   49.9206,  2, 24,  0.3042,  0.2831,  0.8966,  0.1337,  0.1820,  0.1036,  0.40,   1.8
2323,557923.600,  35.162719927, 136.899832846,   49.9412,  2, 24,  0.3042,  0.2831,  0.8966,  0.1337,  0.1820,  0.1036,  0.60,   1.9
2323,557923.800,  35.162719638, 136.899832676,   49.9686,  2, 24,  0.3042,  0.2831,  0.8966,  0.1336,  0.1820,  0.1036,  0.80,   1.8
2323,557924.000,  35.162718868, 136.899832724,   49.9603,  2, 24,  0.3047,  0.2876,  0.9357,  0.1369,  0.2161,  0.1242,  0.00,   1.9
2323,557924.200,  35.162718945, 136.899832734,   50.0019,  2, 24,  0.3047,  0.2876,  0.9357,  0.1369,  0.2161,  0.1242,  0.20,   1.9
2323,557924.400,  35.162718810, 136.899832910,   49.9851,  2, 24,  0.3047,  0.2876,  0.9357,  0.1369,  0.2162,  0.1242,  0.40,   2.0
2323,557924.600,  35.162718700, 136.899832786,   49.9577,  2, 24,  0.3047,  0.2876,  0.9357,  0.1369,  0.2162,  0.1242,  0.60,   1.9
2323,557924.800,  35.162718538, 136.899832883,   49.9456,  2, 24,  0.3047,  0.2876,  0.9358,  0.1369,  0.2162,  0.1242,  0.80,   1.9
2323,557925.000,  35.162719777, 136.899832281,   49.6226,  2, 24,  0.3047,  0.2876,  0.9358,  0.1369,  0.2162,  0.1242,  0.00,   1.7
2323,557925.200,  35.162719787, 136.899832304,   49.6214,  2, 24,  0.3047,  0.2876,  0.9358,  0.1369,  0.2162,  0.1242,  0.20,   1.8
2323,557925.400,  35.162719787, 136.899832458,   49.6263,  2, 24,  0.3047,  0.2876,  0.9358,  0.1369,  0.2162,  0.1242,  0.40,   1.8
2323,557925.600,  35.162719867, 136.899832442,   49.6385,  2, 24,  0.3047,  0.2876,  0.9358,  0.1369,  0.2162,  0.1242,  0.60,   1.8
2323,557925.800,  35.162719649, 136.899832394,   49.6208,  2, 24,  0.3047,  0.2876,  0.9358,  0.1369,  0.2162,  0.1242,  0.80,   1.9
2323,557926.000,  35.162717731, 136.899833172,   49.7916,  2, 24,  0.3047,  0.2876,  0.9358,  0.1369,  0.2163,  0.1242,  0.00,   1.9
2323,557926.200,  35.162717928, 136.899832963,   49.8063,  2, 24,  0.3047,  0.2876,  0.9358,  0.1369,  0.2163,  0.1242,  0.20,   1.8
2323,557926.400,  35.162717732, 136.899833178,   49.7657,  2, 24,  0.3047,  0.2876,  0.9358,  0.1369,  0.2163,  0.1242,  0.40,   1.9
2323,557926.600,  35.162718024, 136.899833075,   49.8208,  2, 24,  0.3047,  0.2876,  0.9359,  0.1369,  0.2163,  0.1242,  0.60,   2.0
2323,557926.800,  35.162718129, 136.899833005,   49.8392,  2, 24,  0.3047,  0.2876,  0.9359,  0.1369,  0.2163,  0.1242,  0.80,   1.9
2323,557927.000,  35.162720214, 136.899833944,   49.7821,  2, 24,  0.3047,  0.2876,  0.9359,  0.1369,  0.2163,  0.1242,  0.00,   1.8
2323,557927.200,  35.162720396, 136.899833897,   49.7980,  2, 24,  0.3047,  0.2876,  0.9359,  0.1369,  0.2163,  0.1242,  0.20,   1.8
2323,557927.400,  35.162720279, 136.899833768,   49.8269,  2, 24,  0.3047,  0.2876,  0.9359,  0.1369,  0.2163,  0.1242,  0.40,   1.9
2323,557927.600,  35.162720221, 136.899833847,   49.8823,  2, 24,  0.3047,  0.2876,  0.9359,  0.1369,  0.2163,  0.1242,  0.60,   1.9
2323,557927.800,  35.162720239, 136.899833754,   49.8961,  2, 24,  0.3047,  0.2876,  0.9359,  0.1369,  0.2164,  0.1242,  0.80,   1.9
2323,557928.000,  35.162719700, 136.899832680,   50.2931,  2, 24,  0.3047,  0.2876,  0.9359,  0.1369,  0.2164,  0.1243,  0.00,   1.8
2323,557928.200,  35.162719705, 136.899832720,   50.2199,  2, 24,  0.3047,  0.2876,  0.9359,  0.1369,  0.2164,  0.1243,  0.20,   1.9
2323,557928.400,  35.162719738, 136.899832542,   50.2733,  2, 24,  0.3047,  0.2876,  0.9360,  0.1369,  0.2164,  0.1243,  0.40,   1.9
2323,557928.600,  35.162719668, 136.899832478,   50.3355,  2, 24,  0.3047,  0.2876,  0.9360,  0.1369,  0.2164,  0.1243,  0.60,   1.9
2323,557928.800,  35.162719505, 136.899832476,   50.3353,  2, 24,  0.3047,  0.2876,  0.9360,  0.1369,  0.2164,  0.1243,  0.80,   2.0
2323,557929.000,  35.162718281, 136.899832397,   49.9839,  2, 24,  0.3047,  0.2876,  0.9360,  0.1369,  0.2164,  0.1243,  0.00,   1.8
2323,557929.200,  35.162718035, 136.899832339,   49.9557,  2, 24,  0.3047,  0.2876,  0.9360,  0.1369,  0.2164,  0.1243,  0.20,   1.9
2323,557929.400,  35.162718012, 136.899832238,   49.9350,  2, 24,  0.3047,  0.2876,  0.9360,  0.1369,  0.2164,  0.1243,  0.40,   1.9
2323,557929.600,  35.162718154, 136.899832311,   50.0308,  2, 24,  0.3047,  0.2876,  0.9360,  0.1369,  0.2165,  0.1243,  0.60,   1.8
2323,557929.800,  35.162718164, 136.899832329,   50.0278,  2, 24,  0.3047,  0.2876,  0.9360,  0.1369,  0.2165,  0.1243,  0.80,   1.8
2323,557930.000,  35.162718376, 136.899832129,   49.9020,  2, 24,  0.3047,  0.2876,  0.9361,  0.1369,  0.2165,  0.1243,  0.00,   1.8
2323,557930.200,  35.162718292, 136.899832044,   49.8871,  2, 24,  0.3047,  0.2876,  0.9361,  0.1369,  0.2165,  0.1243,  0.20,   1.9
2323,557930.400,  35.162718167, 136.899832311,   49.8372,  2, 24,  0.3047,  0.2876,  0.9361,  0.1369,  0.2165,  0.1243,  0.40,   1.8
2323,557930.600,  35.162717999, 136.899832192,   49.7937,  2, 24,  0.3047,  0.2876,  0.9361,  0.1369,  0.2165,  0.1243,  0.60,   1.8
2323,557930.800,  35.162718184, 136.899832371,   49.8114,  2, 24,  0.3047,  0.2876,  0.9361,  0.1369,  0.2165,  0.1243,  0.80,   2.0
2323,557931.000,  35.162719168, 136.899832513,   49.7755,  2, 24,  0.3047,  0.2876,  0.9361,  0.1369,  0.2165,  0.1243,  0.00,   1.8
2323,557931.200,  35.162719154, 136.899832662,   49.8094,  2, 24,  0.3047,  0.2876,  0.9361,  0.1368,  0.2166,  0.1243,  0.20,   1.9
2323,557931.400,  35.162718996, 136.899832859,   49.7921,  2, 24,  0.3047,  0.2876,  0.9361,  0.1368,  0.2166,  0.1243,  0.40,   1.9
2323,557931.600,  35.162719150, 136.899832735,   49.7772,  2, 24,  0.3047,  0.2876,  0.9361,  0.1368,  0.2166,  0.1243,  0.60,   1.9
2323,557931.800,  35.162718955, 136.899832811,   49.7646,  2, 24,  0.3047,  0.2876,  0.9362,  0.1368,  0.2166,  0.1243,  0.80,   1.9
2323,557932.000,  35.162718204, 136.899831105,   49.7360,  2, 24,  0.3047,  0.2876,  0.9362,  0.1368,  0.2166,  0.1243,  0.00,   1.9
2323,557932.200,  35.162718425, 136.899831141,   49.7807,  2, 24,  0.3047,  0.2876,  0.9362,  0.1368,  0.2166,  0.1243,  0.20,   1.9
2323,557932.400,  35.162718392, 136.899831197,   49.7368,  2, 24,  0.3047,  0.2876,  0.9362,  0.1368,  0.2166,  0.1244,  0.40,   1.9
2323,557932.600,  35.162718385, 136.899831304,   49.7980,  2, 24,  0.3047,  0.2876,  0.9362,  0.1368,  0.2166,  0.1244,  0.60,   1.9
2323,557932.800,  35.162718530, 136.899831131,   49.7574,  2, 24,  0.3047,  0.2876,  0.9362,  0.1368,  0.2166,  0.1244,  0.80,   1.9
2323,557933.000,  35.162717475, 136.899832415,   49.5154,  2, 24,  0.3047,  0.2876,  0.9362,  0.1368,  0.2167,  0.1244,  0.00,   1.9
2323,557933.200,  35.162717430, 136.899832363,   49.5115,  2, 24,  0.3047,  0.2876,  0.9362,  0.1368,  0.2167,  0.1244,  0.20,   1.8
2323,557933.400,  35.162717698, 136.899832350,   49.5024,  2, 24,  0.3047,  0.2876,  0.9362,  0.1368,  0.2167,  0.1244,  0.40,   1.9
2323,557933.600,  35.162717763, 136.899832239,   49.4456,  2, 24,  0.3047,  0.2876,  0.9363,  0.1368,  0.2167,  0.1244,  0.60,   1.9
2323,557933.800,  35.162717737, 136.899832389,   49.3829,  2, 24,  0.3047,  0.2876,  0.9363,  0.1368,  0.2167,  0.1244,  0.80,   1.9
2323,557934.000,  35.162718656, 136.899831850,   49.3770,  2, 24,  0.3047,  0.2877,  0.9363,  0.1368,  0.2167,  0.1244,  0.00,   1.9
2323,557934.200,  35.162718608, 136.899831863,   49.3557,  2, 24,  0.3047,  0.2877,  0.9363,  0.1368,  0.2167,  0.1244,  0.20,   1.9
2323,557934.400,  35.162718624, 136.899831865,   49.3312,  2, 24,  0.3047,  0.2877,  0.9363,  0.1368,  0.2167,  0.1244,  0.40,   1.9
2323,557934.600,  35.162718443, 136.899831930,   49.3190,  2, 24,  0.3047,  0.2877,  0.9363,  0.1368,  0.2168,  0.1244,  0.60,   1.9
2323,557934.800,  35.162718261, 136.899831754,   49.3352,  2, 24,  0.3047,  0.2877,  0.9363,  0.1368,  0.2168,  0.1244,  0.80,   1.9
2323,557935.000,  35.162717885, 136.899832607,   49.2803,  2, 25,  0.3037,  0.2786,  0.8845,  0.1303,  0.1580,  0.0893,  0.00,   1.8
2323,557935.200,  35.162717872, 136.899832368,   49.2777,  2, 25,  0.3037,  0.2786,  0.8845,  0.1302,  0.1580,  0.0893,  0.20,   1.8
2323,557935.400,  35.162717651, 136.899832338,   49.2130,  2, 25,  0.3037,  0.2786,  0.8845,  0.1302,  0.1580,  0.0893,  0.40,   1.8
2323,557935.600,  35.162717989, 136.899832322,   49.2334,  2, 25,  0.3037,  0.2786,  0.8845,  0.1302,  0.1580,  0.0893,  0.60,   1.8
2323,557935.800,  35.162717998, 136.899832316,   49.3530,  2, 24,  0.3047,  0.2877,  0.9364,  0.1368,  0.2168,  0.1244,  0.80,   1.9
2323,557936.000,  35.162717819, 136.899831779,   49.7851,  2, 24,  0.3047,  0.2877,  0.9364,  0.1368,  0.2168,  0.1244,  0.00,   1.9
2323,557936.200,  35.162717536, 136.899832025,   49.7652,  2, 24,  0.3047,  0.2877,  0.9364,  0.1368,  0.2168,  0.1244,  0.20,   2.0
2323,557936.400,  35.162717698, 136.899831926,   49.7636,  2, 25,  0.3037,  0.2786,  0.8845,  0.1302,  0.1580,  0.0894,  0.40,   1.9
2323,557936.600,  35.162717631, 136.899831771,   49.6870,  2, 25,  0.3037,  0.2786,  0.8845,  0.1302,  0.1580,  0.0894,  0.60,   2.1
2323,557936.800,  35.162717312, 136.899831693,   49.6823,  2, 25,  0.3037,  0.2786,  0.8846,  0.1302,  0.1580,  0.0894,  0.80,   2.1
2323,557937.000,  35.162717618, 136.899831035,   49.1918,  2, 25,  0.3037,  0.2786,  0.8846,  0.1302,  0.1581,  0.0894,  0.00,   1.9
2323,557937.200,  35.162717415, 136.899831047,   49.1452,  2, 25,  0.3037,  0.2786,  0.8846,  0.1302,  0.1581,  0.0894,  0.20,   1.9
2323,557937.400,  35.162717541, 136.899831223,   49.0868,  2, 25,  0.3037,  0.2786,  0.8846,  0.1302,  0.1581,  0.0894,  0.40,   1.8
2323,557937.600,  35.162717370, 136.899831097,   49.0694,  2, 25,  0.3037,  0.2786,  0.8846,  0.1302,  0.1581,  0.0894,  0.60,   1.9
2323,557937.800,  35.162717535, 136.899830977,   49.0484,  2, 25,  0.3037,  0.2786,  0.8846,  0.1302,  0.1581,  0.0894,  0.80,   1.8
2323,557938.000,  35.162717439, 136.899831363,   49.1127,  2, 25,  0.3037,  0.2786,  0.8846,  0.1302,  0.1581,  0.0894,  0.00,   1.9
2323,557938.200,  35.162717290, 136.899831507,   49.0933,  2, 25,  0.3037,  0.2786,  0.8846,  0.1302,  0.1581,  0.0894,  0.20,   1.9
2323,557938.400,  35.162717190, 136.899831383,   49.0352,  2, 25,  0.3037,  0.2786,  0.8846,  0.1302,  0.1581,  0.0894,  0.40,   1.8
2323,557938.600,  35.162716992, 136.899831316,   49.0956,  2, 25,  0.3037,  0.2786,  0.8846,  0.1302,  0.1581,  0.0894,  0.60,   2.0
2323,557938.800,  35.162716900, 136.899831080,   49.1041,  2, 25,  0.3037,  0.2786,  0.8846,  0.1302,  0.1582,  0.0894,  0.80,   1.9
2323,557939.000,  35.162716711, 136.899831966,   49.8240,  2, 25,  0.3034,  0.2753,  0.8534,  0.1278,  0.1228,  0.0677,  0.00,   1.9
2323,557939.200,  35.162716617, 136.899831955,   49.7262,  2, 25,  0.3034,  0.2753,  0.8534,  0.1278,  0.1228,  0.0677,  0.20,   2.0
2323,557939.400,  35.162716693, 136.899831670,   49.7029,  2, 25,  0.3034,  0.2753,  0.8534,  0.1278,  0.1229,  0.0677,  0.40,   1.9
2323,557939.600,  35.162716707, 136.899831593,   49.6626,  2, 25,  0.3034,  0.2753,  0.8534,  0.1278,  0.1229,  0.0677,  0.60,   1.9
2323,557939.800,  35.162716877, 136.899831480,   49.6650,  2, 25,  0.3034,  0.2753,  0.8534,  0.1278,  0.1229,  0.0677,  0.80,   1.9
2323,557940.000,  35.162712902, 136.899839251,   50.4023,  2, 26,  0.3001,  0.2669,  0.8480,  0.1391,  0.0931,  0.0941,  0.00,   1.6
2323,557940.200,  35.162717464, 136.899830896,   49.2636,  2, 25,  0.3034,  0.2753,  0.8534,  0.1278,  0.1229,  0.0677,  0.20,   2.1
2323,557940.400,  35.162717529, 136.899830666,   49.2271,  2, 25,  0.3034,  0.2753,  0.8534,  0.1278,  0.1229,  0.0677,  0.40,   1.9
2323,557940.600,  35.162717644, 136.899830699,   49.2435,  2, 25,  0.3034,  0.2753,  0.8534,  0.1278,  0.1229,  0.0677,  0.60,   2.0
2323,557940.800,  35.162717623, 136.899830606,   49.2131,  2, 25,  0.3034,  0.2753,  0.8534,  0.1278,  0.1229,  0.0677,  0.80,   2.0
2323,557941.000,  35.162717288, 136.899830799,   49.2467,  2, 25,  0.3034,  0.2753,  0.8535,  0.1278,  0.1230,  0.0678,  0.00,   2.0
2323,557941.200,  35.162717330, 136.899830654,   49.2042,  2, 25,  0.3034,  0.2753,  0.8535,  0.1278,  0.1230,  0.0678,  0.20,   2.0
2323,557941.400,  35.162717378, 136.899830595,   49.1656,  2, 25,  0.3034,  0.2753,  0.8535,  0.1278,  0.1230,  0.0678,  0.40,   1.9
2323,557941.600,  35.162717515, 136.899830476,   49.1834,  2, 25,  0.3034,  0.2753,  0.8535,  0.1278,  0.1230,  0.0678,  0.60,   2.0
2323,557941.800,  35.162712162, 136.899840424,   50.4508,  2, 26,  0.3001,  0.2669,  0.8480,  0.1390,  0.0932,  0.0942,  0.80,   1.6
2323,557942.000,  35.162712078, 136.899840599,   50.5426,  2, 26,  0.3006,  0.2697,  0.8779,  0.1414,  0.1320,  0.1131,  0.00,   1.6
2323,557942.200,  35.162711831, 136.899840695,   50.5751,  2, 26,  0.3006,  0.2697,  0.8779,  0.1414,  0.1320,  0.1132,  0.20,   1.6
2323,557942.400,  35.162711920, 136.899840569,   50.5073,  2, 26,  0.3006,  0.2697,  0.8779,  0.1414,  0.1320,  0.1132,  0.40,   1.6
2323,557942.600,  35.162711830, 136.899840636,   50.6042,  2, 26,  0.3006,  0.2697,  0.8779,  0.1414,  0.1321,  0.1132,  0.60,   1.6
2323,557942.800,  35.162717227, 136.899829675,   49.0315,  2, 25,  0.3037,  0.2786,  0.8848,  0.1302,  0.1584,  0.0896,  0.80,   1.9
2323,557943.000,  35.162718148, 136.899829655,   49.0538,  2, 25,  0.3037,  0.2786,  0.8848,  0.1302,  0.1584,  0.0896,  0.00,   2.0
2323,557943.200,  35.162718124, 136.899829459,   49.0321,  2, 25,  0.3037,  0.2786,  0.8848,  0.1302,  0.1584,  0.0896,  0.20,   2.0
2323,557943.400,  35.162712288, 136.899840735,   50.6279,  2, 26,  0.3006,  0.2697,  0.8780,  0.1414,  0.1321,  0.1132,  0.40,   1.7
2323,557943.600,  35.162712450, 136.899840720,   50.6746,  2, 26,  0.3006,  0.2697,  0.8780,  0.1414,  0.1321,  0.1132,  0.60,   1.6
2323,557943.800,  35.162718165, 136.899829285,   49.1022,  2, 25,  0.3037,  0.2786,  0.8849,  0.1302,  0.1584,  0.0896,  0.80,   2.0
2323,557944.000,  35.162717130, 136.899827718,   48.9044,  2, 25,  0.3037,  0.2786,  0.8849,  0.1302,  0.1584,  0.0896,  0.00,   1.9
2323,557944.200,  35.162717229, 136.899827789,   48.9002,  2, 25,  0.3037,  0.2786,  0.8849,  0.1302,  0.1584,  0.0896,  0.20,   1.9
2323,557944.400,  35.162717152, 136.899827790,   48.8810,  2, 25,  0.3037,  0.2786,  0.8849,  0.1301,  0.1584,  0.0896,  0.40,   1.8
2323,557944.600,  35.162717273, 136.899827626,   48.9154,  2, 25,  0.3037,  0.2786,  0.8849,  0.1301,  0.1585,  0.0896,  0.60,   1.8
2323,557944.800,  35.162711809, 136.899838819,   50.6000,  2, 26,  0.3006,  0.2697,  0.8780,  0.1414,  0.1322,  0.1132,  0.80,   1.7
2323,557945.000,  35.162712207, 136.899839106,   50.5040,  2, 26,  0.3006,  0.2697,  0.8780,  0.1414,  0.1322,  0.1132,  0.00,   1.7
2323,557945.200,  35.162712428, 136.899839100,   50.5083,  2, 26,  0.3006,  0.2697,  0.8780,  0.1414,  0.1322,  0.1132,  0.20,   1.6
2323,557945.400,  35.162712557, 136.899839413,   50.5830,  2, 26,  0.3006,  0.2697,  0.8781,  0.1414,  0.1322,  0.1132,  0.40,   1.6
2323,557945.600,  35.162712452, 136.899839159,   50.6469,  2, 26,  0.3006,  0.2697,  0.8781,  0.1414,  0.1323,  0.1132,  0.60,   1.7
2323,557945.800,  35.162712443, 136.899838963,   50.6673,  2, 26,  0.3006,  0.2697,  0.8781,  0.1414,  0.1323,  0.1132,  0.80,   1.7
2323,557946.000,  35.162711266, 136.899836503,   50.8116,  2, 26,  0.3006,  0.2697,  0.8781,  0.1414,  0.1323,  0.1132,  0.00,   1.7
2323,557946.200,  35.162711440, 136.899836348,   50.7883,  2, 26,  0.3006,  0.2697,  0.8781,  0.1414,  0.1323,  0.1133,  0.20,   1.7
2323,557946.400,  35.162711325, 136.899836312,   50.7610,  2, 26,  0.3006,  0.2697,  0.8781,  0.1414,  0.1323,  0.1133,  0.40,   1.7
2323,557946.600,  35.162711546, 136.899836219,   50.7057,  2, 26,  0.3006,  0.2697,  0.8781,  0.1414,  0.1323,  0.1133,  0.60,   1.6
2323,557946.800,  35.162711725, 136.899836053,   50.7132,  2, 26,  0.3006,  0.2697,  0.8781,  0.1414,  0.1323,  0.1133,  0.80,   1.7
2323,557947.000,  35.162712822, 136.899837965,   50.7215,  2, 26,  0.3006,  0.2697,  0.8781,  0.1414,  0.1323,  0.1133,  0.00,   1.6
2323,557947.200,  35.162712692, 136.899837848,   50.7030,  2, 26,  0.3006,  0.2697,  0.8781,  0.1414,  0.1324,  0.1133,  0.20,   1.7
2323,557947.400,  35.162712723, 136.899837476,   50.7140,  2, 26,  0.3006,  0.2697,  0.8781,  0.1414,  0.1324,  0.1133,  0.40,   1.7
2323,557947.600,  35.162712789, 136.899837306,   50.6879,  2, 26,  0.3006,  0.2697,  0.8782,  0.1414,  0.1324,  0.1133,  0.60,   1.6
2323,557947.800,  35.162712835, 136.899837284,   50.6958,  2, 26,  0.3006,  0.2697,  0.8782,  0.1414,  0.1324,  0.1133,  0.80,   1.6
2323,557948.000,  35.162712603, 136.899836475,   50.8333,  2, 26,  0.3006,  0.2697,  0.8782,  0.1414,  0.1324,  0.1133,  0.00,   1.6
2323,557948.200,  35.162712628, 136.899836572,   50.8665,  2, 26,  0.3006,  0.2697,  0.8782,  0.1414,  0.1324,  0.1133,  0.20,   1.6
2323,557948.400,  35.162712682, 136.899836545,   50.8589,  2, 26,  0.3006,  0.2697,  0.8782,  0.1414,  0.1324,  0.1133,  0.40,   1.6
2323,557948.600,  35.162712800, 136.899836389,   50.8306,  2, 26,  0.3006,  0.2697,  0.8782,  0.1414,  0.1325,  0.1133,  0.60,   1.6
2323,557948.800,  35.162712756, 136.899836058,   50.7828,  2, 26,  0.3006,  0.2697,  0.8782,  0.1414,  0.1325,  0.1133,  0.80,   1.7
2323,557949.000,  35.162712130, 136.899835155,   50.7911,  2, 26,  0.3001,  0.2670,  0.8483,  0.1390,  0.0938,  0.0944,  0.00,   1.7
2323,557949.200,  35.162712213, 136.899835221,   50.7917,  2, 26,  0.3001,  0.2670,  0.8483,  0.1390,  0.0938,  0.0944,  0.20,   1.7
2323,557949.400,  35.162712427, 136.899835013,   50.7507,  2, 26,  0.3001,  0.2670,  0.8483,  0.1390,  0.0938,  0.0944,  0.40,   1.7
2323,557949.600,  35.162712387, 136.899834695,   50.7307,  2, 26,  0.3001,  0.2670,  0.8483,  0.1390,  0.0938,  0.0944,  0.60,   1.7
2323,557949.800,  35.162712506, 136.899834608,   50.6831,  2, 26,  0.3001,  0.2670,  0.8484,  0.1390,  0.0939,  0.0944,  0.80,   1.7
2323,557950.000,  35.162712869, 136.899835343,   50.7738,  2, 26,  0.3006,  0.2697,  0.8783,  0.1414,  0.1325,  0.1133,  0.00,   1.7
2323,557950.200,  35.162712896, 136.899835127,   50.7362,  2, 26,  0.3006,  0.2697,  0.8783,  0.1413,  0.1326,  0.1134,  0.20,   1.8
2323,557950.400,  35.162712988, 136.899834930,   50.7249,  2, 26,  0.3006,  0.2697,  0.8783,  0.1413,  0.1326,  0.1134,  0.40,   1.7
2323,557950.600,  35.162713010, 136.899834935,   50.7802,  2, 26,  0.3006,  0.2697,  0.8783,  0.1413,  0.1326,  0.1134,  0.60,   1.8
2323,557950.800,  35.162712867, 136.899834881,   50.7809,  2, 26,  0.3006,  0.2697,  0.8783,  0.1413,  0.1326,  0.1134,  0.80,   1.7
2323,557951.000,  35.162711141, 136.899833655,   50.4974,  2, 26,  0.3006,  0.2697,  0.8783,  0.1413,  0.1326,  0.1134,  0.00,   1.7
2323,557951.200,  35.162711164, 136.899833492,   50.4627,  2, 26,  0.3006,  0.2697,  0.8783,  0.1413,  0.1326,  0.1134,  0.20,   1.7
2323,557951.400,  35.162711114, 136.899833271,   50.4202,  2, 26,  0.3006,  0.2697,  0.8783,  0.1413,  0.1326,  0.1134,  0.40,   1.7
2323,557951.600,  35.162711345, 136.899833114,   50.4240,  2, 26,  0.3006,  0.2697,  0.8783,  0.1413,  0.1326,  0.1134,  0.60,   1.7
2323,557951.800,  35.162711414, 136.899833028,   50.3886,  2, 26,  0.3006,  0.2697,  0.8783,  0.1413,  0.1327,  0.1134,  0.80,   1.7
2323,557952.000,  35.162712882, 136.899833724,   50.2712,  2, 26,  0.3006,  0.2697,  0.8784,  0.1413,  0.1327,  0.1134,  0.00,   1.7
2323,557952.200,  35.162712856, 136.899833652,   50.2845,  2, 26,  0.3006,  0.2697,  0.8784,  0.1413,  0.1327,  0.1134,  0.20,   1.7
2323,557952.400,  35.162712904, 136.899833373,   50.2109,  2, 26,  0.3006,  0.2697,  0.8784,  0.1413,  0.1327,  0.1134,  0.40,   1.7
2323,557952.600,  35.162713143, 136.899833463,   50.1810,  2, 26,  0.3006,  0.2697,  0.8784,  0.1413,  0.1327,  0.1134,  0.60,   1.7
2323,557952.800,  35.162713278, 136.899833372,   50.1560,  2, 26,  0.3006,  0.2697,  0.8784,  0.1413,  0.1327,  0.1134,  0.80,   1.7
2323,557953.000,  35.162713804, 136.899832689,   49.9416,  2, 26,  0.3006,  0.2697,  0.8784,  0.1413,  0.1327,  0.1134,  0.00,   1.7
2323,557953.200,  35.162713870, 136.899832804,   49.9321,  2, 26,  0.3006,  0.2697,  0.8784,  0.1413,  0.1328,  0.1134,  0.20,   1.7
2323,557953.400,  35.162713983, 136.899832542,   49.8426,  2, 26,  0.3006,  0.2697,  0.8784,  0.1413,  0.1328,  0.1134,  0.40,   1.7
2323,557953.600,  35.162714111, 136.899832393,   49.7751,  2, 26,  0.3006,  0.2697,  0.8784,  0.1413,  0.1328,  0.1134,  0.60,   1.7
2323,557953.800,  35.162714265, 136.899832227,   49.8192,  2, 26,  0.3006,  0.2697,  0.8784,  0.1413,  0.1328,  0.1134,  0.80,   1.7
2323,557954.000,  35.162713396, 136.899832469,   50.2158,  2, 26,  0.3006,  0.2697,  0.8784,  0.1413,  0.1328,  0.1134,  0.00,   1.6
2323,557954.200,  35.162713424, 136.899832442,   50.1660,  2, 26,  0.3006,  0.2697,  0.8785,  0.1413,  0.1328,  0.1134,  0.20,   1.7
2323,557954.400,  35.162713586, 136.899832371,   50.1298,  2, 26,  0.3006,  0.2697,  0.8785,  0.1413,  0.1328,  0.1135,  0.40,   1.7
2323,557954.600,  35.162713645, 136.899832308,   50.1424,  2, 26,  0.3006,  0.2697,  0.8785,  0.1413,  0.1328,  0.1135,  0.60,   1.7
2323,557954.800,  35.162713705, 136.899832324,   50.1603,  2, 26,  0.3006,  0.2697,  0.8785,  0.1413,  0.1329,  0.1135,  0.80,   1.7
2323,557955.000,  35.162715018, 136.899832988,   50.2220,  2, 26,  0.3006,  0.2697,  0.8785,  0.1413,  0.1329,  0.1135,  0.00,   1.7
2323,557955.200,  35.162715052, 136.899832779,   50.2857,  2, 26,  0.3006,  0.2697,  0.8785,  0.1413,  0.1329,  0.1135,  0.20,   1.7
2323,557955.400,  35.162715275, 136.899832746,   50.2802,  2, 26,  0.3006,  0.2697,  0.8785,  0.1413,  0.1329,  0.1135,  0.40,   1.8
2323,557955.600,  35.162715311, 136.899832712,   50.2820,  2, 26,  0.3006,  0.2697,  0.8785,  0.1413,  0.1329,  0.1135,  0.60,   1.7
2323,557955.800,  35.162715199, 136.899832642,   50.2932,  2, 26,  0.3006,  0.2697,  0.8785,  0.1413,  0.1329,  0.1135,  0.80,   1.7
2323,557956.000,  35.162714195, 136.899832453,   50.2631,  2, 26,  0.3006,  0.2697,  0.8785,  0.1413,  0.1329,  0.1135,  0.00,   1.7
2323,557956.200,  35.162714488, 136.899832354,   50.2652,  2, 26,  0.3006,  0.2697,  0.8785,  0.1413,  0.1330,  0.1135,  0.20,   1.6
2323,557956.400,  35.162714348, 136.899832393,   50.2421,  2, 26,  0.3006,  0.2697,  0.8786,  0.1413,  0.1330,  0.1135,  0.40,   1.8
2323,557956.600,  35.162714469, 136.899832395,   50.2619,  2, 26,  0.3006,  0.2697,  0.8786,  0.1413,  0.1330,  0.1135,  0.60,   1.7
2323,557956.800,  35.162714335, 136.899832255,   50.2724,  2, 26,  0.3006,  0.2697,  0.8786,  0.1413,  0.1330,  0.1135,  0.80,   1.8
2323,557957.000,  35.162714834, 136.899832613,   50.1100,  2, 26,  0.3006,  0.2697,  0.8786,  0.1413,  0.1330,  0.1135,  0.00,   1.8
2323,557957.200,  35.162714594, 136.899832691,   50.1990,  2, 26,  0.3006,  0.2697,  0.8786,  0.1413,  0.1330,  0.1135,  0.20,   1.7
2323,557957.400,  35.162714749, 136.899832559,   50.1930,  2, 26,  0.3006,  0.2697,  0.8786,  0.1413,  0.1330,  0.1135,  0.40,   1.7
2323,557957.600,  35.162714932, 136.899832549,   50.1661,  2, 26,  0.3006,  0.2697,  0.8786,  0.1413,  0.1330,  0.1135,  0.60,   1.8
2323,557957.800,  35.162714710, 136.899832391,   50.1187,  2, 26,  0.3006,  0.2697,  0.8786,  0.1413,  0.1331,  0.1135,  0.80,   1.8
2323,557958.000,  35.162714630, 136.899832138,   50.6397,  2, 26,  0.3001,  0.2670,  0.8487,  0.1389,  0.0945,  0.0946,  0.00,   1.8
2323,557958.200,  35.162714413, 136.899832129,   50.6373,  2, 26,  0.3001,  0.2670,  0.8487,  0.1389,  0.0945,  0.0946,  0.20,   1.8
2323,557958.400,  35.162714432, 136.899832300,   50.6590,  2, 26,  0.3001,  0.2670,  0.8487,  0.1389,  0.0946,  0.0946,  0.40,   1.8
2323,557958.600,  35.162714415, 136.899832238,   50.6603,  2, 26,  0.3001,  0.2670,  0.8487,  0.1389,  0.0946,  0.0946,  0.60,   1.8
2323,557958.800,  35.162714203, 136.899832174,   50.6239,  2, 26,  0.3001,  0.2670,  0.8487,  0.1389,  0.0946,  0.0946,  0.80,   1.8
2323,557959.000,  35.162714681, 136.899831244,   50.5086,  2, 26,  0.3001,  0.2670,  0.8487,  0.1389,  0.0946,  0.0946,  0.00,   1.7
2323,557959.200,  35.162714589, 136.899831144,   50.5107,  2, 26,  0.3001,  0.2670,  0.8487,  0.1389,  0.0946,  0.0946,  0.20,   1.8
2323,557959.400,  35.162714637, 136.899831113,   50.5131,  2, 26,  0.3001,  0.2670,  0.8487,  0.1389,  0.0946,  0.0946,  0.40,   1.8
2323,557959.600,  35.162714713, 136.899831161,   50.4669,  2, 26,  0.3001,  0.2670,  0.8487,  0.1389,  0.0947,  0.0946,  0.60,   1.8
2323,557959.800,  35.162714518, 136.899831219,   50.4619,  2, 26,  0.3001,  0.2670,  0.8488,  0.1389,  0.0947,  0.0946,  0.80,   1.8
2323,557960.000,  35.162714555, 136.899832863,   50.4388,  2, 26,  0.3001,  0.2670,  0.8488,  0.1389,  0.0947,  0.0946,  0.00,   1.8
2323,557960.200,  35.162714605, 136.899832664,   50.4384,  2, 26,  0.3001,  0.2670,  0.8488,  0.1389,  0.0947,  0.0947,  0.20,   1.8
2323,557960.400,  35.162714585, 136.899832714,   50.4595,  2, 26,  0.3001,  0.2670,  0.8488,  0.1389,  0.0947,  0.0947,  0.40,   1.8
2323,557960.600,  35.162714819, 136.899832518,   50.4110,  2, 26,  0.3001,  0.2670,  0.8488,  0.1389,  0.0947,  0.0947,  0.60,   1.8
2323,557960.800,  35.162715016, 136.899832362,   50.3936,  2, 26,  0.3001,  0.2670,  0.8488,  0.1389,  0.0948,  0.0947,  0.80,   1.8
2323,557961.000,  35.162714376, 136.899831679,   50.4547,  2, 26,  0.3001,  0.2670,  0.8488,  0.1389,  0.0948,  0.0947,  0.00,   1.8
2323,557961.200,  35.162714594, 136.899831728,   50.4292,  2, 26,  0.3001,  0.2670,  0.8488,  0.1389,  0.0948,  0.0947,  0.20,   1.8
2323,557961.400,  35.162714427, 136.899831840,   50.4225,  2, 26,  0.3001,  0.2670,  0.8488,  0.1389,  0.0948,  0.0947,  0.40,   1.9
2323,557961.600,  35.162714342, 136.899832065,   50.4390,  2, 26,  0.3001,  0.2670,  0.8488,  0.1389,  0.0948,  0.0947,  0.60,   1.8
2323,557961.800,  35.162714412, 136.899832168,   50.4765,  2, 26,  0.3001,  0.2670,  0.8488,  0.1389,  0.0948,  0.0947,  0.80,   1.9
2323,557962.000,  35.162714741, 136.899832445,   50.4802,  2, 26,  0.3001,  0.2670,  0.8488,  0.1389,  0.0949,  0.0947,  0.00,   1.8
2323,557962.200,  35.162714616, 136.899832265,   50.4724,  2, 26,  0.3001,  0.2670,  0.8488,  0.1389,  0.0949,  0.0947,  0.20,   1.7
2323,557962.400,  35.162714640, 136.899832333,   50.4734,  2, 26,  0.3001,  0.2670,  0.8489,  0.1389,  0.0949,  0.0947,  0.40,   1.8
2323,557962.600,  35.162714901, 136.899832313,   50.4918,  2, 26,  0.3001,  0.2670,  0.8489,  0.1389,  0.0949,  0.0947,  0.60,   1.8
2323,557962.800,  35.162714865, 136.899832015,   50.4975,  2, 26,  0.3001,  0.2670,  0.8489,  0.1389,  0.0949,  0.0947,  0.80,   1.7
2323,557963.000,  35.162715085, 136.899831006,   50.3212,  2, 26,  0.3001,  0.2670,  0.8489,  0.1389,  0.0949,  0.0947,  0.00,   1.8
2323,557963.200,  35.162715172, 136.899830943,   50.3021,  2, 26,  0.3001,  0.2670,  0.8489,  0.1388,  0.0949,  0.0947,  0.20,   1.8
2323,557963.400,  35.162715285, 136.899830909,   50.3084,  2, 26,  0.3001,  0.2670,  0.8489,  0.1388,  0.0950,  0.0947,  0.40,   1.8
2323,557963.600,  35.162715493, 136.899830934,   50.3267,  2, 26,  0.3001,  0.2670,  0.8489,  0.1388,  0.0950,  0.0947,  0.60,   1.8
2323,557963.800,  35.162715532, 136.899830867,   50.3401,  2, 26,  0.3001,  0.2670,  0.8489,  0.1388,  0.0950,  0.0947,  0.80,   1.8
2323,557964.000,  35.162715796, 136.899830781,   50.4016,  2, 26,  0.3001,  0.2670,  0.8489,  0.1388,  0.0950,  0.0947,  0.00,   1.9
2323,557964.200,  35.162715920, 136.899830666,   50.3698,  2, 26,  0.3001,  0.2670,  0.8489,  0.1388,  0.0950,  0.0948,  0.20,   1.8
2323,557964.400,  35.162715860, 136.899830623,   50.3216,  2, 26,  0.3001,  0.2670,  0.8489,  0.1388,  0.0950,  0.0948,  0.40,   1.8
2323,557964.600,  35.162716013, 136.899830839,   50.3163,  2, 26,  0.3001,  0.2670,  0.8489,  0.1388,  0.0951,  0.0948,  0.60,   1.9
2323,557964.800,  35.162716025, 136.899830752,   50.3335,  2, 26,  0.3001,  0.2670,  0.8490,  0.1388,  0.0951,  0.0948,  0.80,   1.9
2323,557965.000,  35.162715402, 136.899831057,   50.5357,  2, 26,  0.3001,  0.2670,  0.8490,  0.1388,  0.0951,  0.0948,  0.00,   1.8
2323,557965.200,  35.162715477, 136.899830945,   50.5429,  2, 26,  0.3001,  0.2670,  0.8490,  0.1388,  0.0951,  0.0948,  0.20,   1.8
2323,557965.400,  35.162715764, 136.899831225,   50.5325,  2, 26,  0.3001,  0.2670,  0.8490,  0.1388,  0.0951,  0.0948,  0.40,   1.8
2323,557965.600,  35.162715925, 136.899831237,   50.5197,  2, 26,  0.3001,  0.2670,  0.8490,  0.1388,  0.0951,  0.0948,  0.60,   1.8
2323,557965.800,  35.162716165, 136.899831632,   50.5242,  2, 26,  0.3001,  0.2670,  0.8490,  0.1388,  0.0952,  0.0948,  0.80,   1.6
2323,557966.000,  35.162717540, 136.899832394,   50.2015,  2, 26,  0.3001,  0.2670,  0.8490,  0.1388,  0.0952,  0.0948,  0.00,   1.4
2323,557966.200,  35.162718795, 136.899829896,   49.8130,  2, 25,  0.3034,  0.2754,  0.8544,  0.1275,  0.1244,  0.0686,  0.20,   1.7
2323,557966.400,  35.162719122, 136.899831149,   49.7040,  2, 26,  0.3019,  0.2722,  0.8541,  0.1323,  0.1208,  0.0732,  0.40,   1.7
2323,557966.600,  35.162718939, 136.899832879,   49.6752,  2, 26,  0.3062,  0.2732,  0.8692,  0.1368,  0.1036, -0.0528,  0.60,   2.0
2323,557966.800,  35.162718024, 136.899834314,   49.8149,  2, 25,  0.3112,  0.2745,  0.8866,  0.1420,  0.0785, -0.1118,  0.80,   1.7
2323,557967.000,  35.162715528, 136.899837106,   50.3696,  2, 26,  0.3077,  0.2671,  0.8804,  0.1519, -0.0202, -0.0877,  0.00,   1.8
2323,557967.200,  35.162715004, 136.899840144,   50.3235,  2, 27,  0.3046,  0.2670,  0.8757,  0.1511, -0.0303, -0.1080,  0.20,   0.0
2323,557967.400,  35.162714876, 136.899844150,   50.2431,  2, 25,  0.3086,  0.2701,  0.9222,  0.1489, -0.1070, -0.0374,  0.40,   1.6
2323,557967.600,  35.162713742, 136.899848355,   50.1955,  2, 25,  0.3086,  0.2701,  0.9223,  0.1489, -0.1070, -0.0374,  0.60,   0.0
2323,557967.800,  35.162712460, 136.899852494,   50.1687,  2, 26,  0.3053,  0.2701,  0.9164,  0.1483, -0.1087, -0.0777,  0.80,   0.0
2323,557968.000,  35.162710958, 136.899858032,   50.2710,  2, 24,  0.3213,  0.2746,  0.9530,  0.1440, -0.0399, -0.0900,  0.00,   0.0
2323,557968.200,  35.162709339, 136.899863350,   50.3484,  2, 24,  0.3213,  0.2746,  0.9530,  0.1440, -0.0399, -0.0900,  0.20,   0.0
2323,557968.400,  35.162707515, 136.899869094,   50.4580,  2, 23,  0.3607,  0.3125,  1.0449,  0.2126, -0.2557, -0.2798,  0.40,   2.1
2323,557968.600,  35.162705963, 136.899875864,   50.3977,  2, 22,  0.3662,  0.3153,  1.0465,  0.2064, -0.2510, -0.2863,  0.60,   2.1
2323,557968.800,  35.162703827, 136.899883225,   50.4494,  2, 22,  0.3662,  0.3153,  1.0465,  0.2064, -0.2510, -0.2863,  0.80,   1.5
2323,557969.000,  35.162700396, 136.899889888,   50.6226,  2, 22,  0.3662,  0.3153,  1.0465,  0.2064, -0.2509, -0.2863,  0.00,   1.9
2323,557969.200,  35.162698308, 136.899898452,   50.5153,  2, 22,  0.3662,  0.3153,  1.0465,  0.2064, -0.2509, -0.2863,  0.20,   2.1
2323,557969.400,  35.162697191, 136.899908625,   50.2629,  2, 22,  0.3273,  0.2857,  1.0932,  0.1296, -0.1849, -0.0254,  0.40,   1.1
2323,557969.600,  35.162696927, 136.899917340,   48.8922,  1, 20,  0.0046,  0.0035,  0.0143,  0.0023, -0.0036, -0.0044,  0.60,   3.2
2323,557969.800,  35.162694465, 136.899927289,   48.9094,  1, 20,  0.0046,  0.0036,  0.0144,  0.0023, -0.0037, -0.0044,  0.80,   4.0
2323,557970.000,  35.162695599, 136.899937624,   48.1416,  2, 20,  0.4326,  0.3258,  1.2793,  0.2068, -0.3130, -0.4699,  0.00,   2.8
2323,557970.200,  35.162687560, 136.899949278,   49.7642,  2, 22,  0.3315,  0.2834,  1.0156,  0.1253, -0.1213, -0.0749,  0.20,   1.4
2323,557970.400,  35.162685450, 136.899960439,   49.7149,  2, 22,  0.3315,  0.2834,  1.0156,  0.1253, -0.1212, -0.0748,  0.40,   2.6
2323,557970.600,  35.162683561, 136.899971923,   49.7839,  2, 22,  0.3320,  0.2879,  1.0938,  0.1218, -0.1880,  0.0361,  0.60,   1.6
2323,557970.800,  35.162681855, 136.899983512,   49.8662,  2, 22,  0.3315,  0.2834,  1.0157,  0.1253, -0.1212, -0.0747,  0.80,   2.3
2323,557971.000,  35.162682140, 136.899995097,   49.0113,  1, 22,  0.0036,  0.0030,  0.0114,  0.0014, -0.0013,  0.0023,  0.00,   4.0
2323,557971.200,  35.162679093, 136.900006461,   50.2227,  2, 22,  0.3315,  0.2834,  1.0157,  0.1253, -0.1212, -0.0747,  0.20,   1.0
2323,557971.400,  35.162676997, 136.900018144,   50.3825,  2, 20,  0.3713,  0.3330,  1.1816,  0.2041, -0.3450, -0.2960,  0.40,   1.8
2323,557971.600,  35.162675630, 136.900029154,   50.6189,  2, 20,  0.3713,  0.3518,  1.2080,  0.2039, -0.3840, -0.2956,  0.60,   1.4
2323,557971.800,  35.162674551, 136.900041713,   50.1992,  2, 19,  0.3714,  0.3850,  1.3286,  0.2073, -0.4836, -0.3037,  0.80,   1.1
2323,557972.000,  35.162672758, 136.900048729,   50.7252,  2, 16,  0.3877,  0.4613,  1.1941,  0.2406, -0.4350, -0.2673,  0.00,   1.1
2323,557972.200,  35.162672490, 136.900059556,   49.9602,  2, 14,  0.3986,  0.5016,  1.2172,  0.2707, -0.4044, -0.2427,  0.20,   1.2
2323,557972.400,  35.162660506, 136.900056503,   48.7905,  2, 10,  0.6577,  0.6598,  1.2896,  0.5029, -0.3178, -0.2578,  0.40,   1.1
2323,557972.600,  35.162687623, 136.900079818,   45.0375,  2,  6,  1.5090,  0.7931,  1.6439,  0.9313, -0.7246, -1.1358,  0.60,   1.0
2323,557972.800,  35.162680849, 136.900088635,   46.0362,  2,  7,  0.9807,  0.4139,  1.3477,  0.1821,  0.3514,  0.0914,  0.80,   1.1
2323,557973.000,  35.162673276, 136.900102989,   46.2413,  2,  7,  0.7324,  0.4194,  1.3465,  0.0984,  0.3599,  0.2355,  0.00,   1.4
2323,557973.200,  35.162671111, 136.900123597,   46.2620,  2,  6,  0.8563,  0.5496,  1.7468, -0.2199,  0.2043, -0.7029,  0.20,   1.1
2323,557973.400,  35.162671112, 136.900137366,   47.0806,  2,  6,  0.6476,  0.5700,  1.7242, -0.2495,  0.2461, -0.5460,  0.40,   1.1
2323,557973.600,  35.162668939, 136.900148960,   48.0611,  2,  7,  0.5139,  0.5587,  1.3672, -0.2662,  0.2515,  0.3315,  0.60,   1.3
2323,557973.800,  35.162671265, 136.900159271,   47.2479,  2,  8,  0.4566,  0.4450,  1.5353, -0.0656,  0.5030,  0.2852,  0.80,   1.0
2323,557974.000,  35.162671627, 136.900175634,   47.3697,  2,  8,  0.5406,  0.5291,  1.6716,  0.3332, -0.1070, -0.3317,  0.00,   1.3
2323,557974.200,  35.162674620, 136.900184908,   47.3868,  2,  7,  0.5575,  0.4455,  1.5374,  0.0481,  0.5014,  0.2367,  0.20,   1.6
2323,557974.400,  35.162671726, 136.900200064,   48.5081,  2,  8,  0.5441,  0.4152,  1.4595,  0.1480,  0.4164,  0.3388,  0.40,   1.4
2323,557974.600,  35.162671946, 136.900212632,   49.0212,  2,  9,  0.5358,  0.3676,  1.3256,  0.2068,  0.2249,  0.4173,  0.60,   1.1
2323,557974.800,  35.162672851, 136.900222889,   48.8532,  2,  8,  0.5441,  0.4152,  1.4596,  0.1480,  0.4165,  0.3389,  0.80,   1.2
2323,557975.000,  35.162672949, 136.900234172,   49.1569,  2,  9,  0.5354,  0.3626,  1.3256,  0.2036,  0.2237,  0.4171,  0.00,   1.5
2323,557975.200,  35.162672208, 136.900245947,   49.2438,  2, 11,  0.4193,  0.3563,  1.3207,  0.1589,  0.2101,  0.4119,  0.20,   1.1
2323,557975.400,  35.162675304, 136.900254942,   49.2195,  1, 10,  0.0045,  0.0037,  0.0134,  0.0019,  0.0023,  0.0044,  0.40,   3.4
2323,557975.600,  35.162675457, 136.900265705,   49.1771,  1, 10,  0.0045,  0.0037,  0.0135,  0.0019,  0.0023,  0.0044,  0.60,   4.7
2323,557975.800,  35.162675623, 136.900276370,   49.2075,  1, 10,  0.0046,  0.0037,  0.0135,  0.0019,  0.0023,  0.0044,  0.80,   7.2
2323,557976.000,  35.162675794, 136.900286847,   49.2195,  1, 10,  0.0045,  0.0036,  0.0134,  0.0019,  0.0022,  0.0044,  0.00,   4.6
2323,557976.200,  35.162675998, 136.900297242,   49.2231,  1, 14,  0.0040,  0.0035,  0.0133,  0.0013,  0.0019,  0.0040,  0.20,   4.6
2323,557976.400,  35.162676103, 136.900307521,   49.2422,  1, 19,  0.0040,  0.0034,  0.0121,  0.0011, -0.0009,  0.0035,  0.40,   4.6
2323,557976.600,  35.162676282, 136.900317550,   49.2588,  1, 19,  0.0040,  0.0034,  0.0121,  0.0011, -0.0009,  0.0035,  0.60,   4.3
2323,557976.800,  35.162676391, 136.900327269,   49.2689,  1, 19,  0.0040,  0.0034,  0.0122,  0.0011, -0.0009,  0.0035,  0.80,   5.5
2323,557977.000,  35.162676483, 136.900336776,   49.2930,  1, 19,  0.0039,  0.0034,  0.0121,  0.0011, -0.0009,  0.0035,  0.00,   5.4
2323,557977.200,  35.162676642, 136.900345949,   49.2901,  1, 19,  0.0039,  0.0033,  0.0120,  0.0010, -0.0012,  0.0035,  0.20,   6.2
2323,557977.400,  35.162676787, 136.900354763,   49.3009,  1, 19,  0.0040,  0.0033,  0.0121,  0.0010, -0.0012,  0.0035,  0.40,   6.1
2323,557977.600,  35.162676958, 136.900363299,   49.2976,  1, 19,  0.0040,  0.0033,  0.0121,  0.0011, -0.0012,  0.0035,  0.60,   6.2
2323,557977.800,  35.162677019, 136.900371516,   49.3249,  1, 19,  0.0040,  0.0033,  0.0121,  0.0011, -0.0012,  0.0035,  0.80,   4.6
2323,557978.000,  35.162677081, 136.900379349,   49.3213,  1, 19,  0.0039,  0.0033,  0.0120,  0.0010, -0.0012,  0.0035,  0.00,   6.3
2323,557978.200,  35.162677258, 136.900386924,   49.3371,  1, 21,  0.0039,  0.0033,  0.0120,  0.0010, -0.0012,  0.0035,  0.20,   5.2
2323,557978.400,  35.162677441, 136.900394190,   49.3333,  1, 21,  0.0040,  0.0033,  0.0121,  0.0010, -0.0012,  0.0035,  0.40,   4.5
2323,557978.600,  35.162677519, 136.900401146,   49.3466,  1, 21,  0.0040,  0.0033,  0.0121,  0.0011, -0.0012,  0.0035,  0.60,   5.9
2323,557978.800,  35.162677620, 136.900407794,   49.3648,  1, 22,  0.0039,  0.0033,  0.0112,  0.0011, -0.0009,  0.0028,  0.80,   6.4
2323,557979.000,  35.162677774, 136.900414118,   49.3663,  1, 22,  0.0038,  0.0033,  0.0111,  0.0011, -0.0009,  0.0027,  0.00,   7.6
2323,557979.200,  35.162677895, 136.900420156,   49.3842,  1, 22,  0.0038,  0.0033,  0.0111,  0.0011, -0.0009,  0.0027,  0.20,   7.2
2323,557979.400,  35.162678046, 136.900425899,   49.3850,  1, 22,  0.0038,  0.0033,  0.0111,  0.0011, -0.0009,  0.0027,  0.40,   6.7
2323,557979.600,  35.162678120, 136.900431542,   49.3884,  1, 23,  0.0038,  0.0032,  0.0110,  0.0010, -0.0016,  0.0026,  0.60,   4.7
2323,557979.800,  35.162678183, 136.900436924,   49.4046,  1, 23,  0.0038,  0.0032,  0.0110,  0.0010, -0.0016,  0.0026,  0.80,   5.0
2323,557980.000,  35.162678283, 136.900442080,   49.3978,  1, 24,  0.0038,  0.0032,  0.0109,  0.0010, -0.0016,  0.0026,  0.00,   3.4
2323,557980.200,  35.162678335, 136.900447214,   49.4161,  1, 24,  0.0038,  0.0032,  0.0109,  0.0010, -0.0016,  0.0026,  0.20,   3.5
2323,557980.400,  35.162678464, 136.900452285,   49.4120,  1, 24,  0.0038,  0.0031,  0.0109,  0.0009, -0.0015,  0.0026,  0.40,   3.6
2323,557980.600,  35.162678507, 136.900457232,   49.4251,  1, 23,  0.0038,  0.0031,  0.0109,  0.0009, -0.0015,  0.0026,  0.60,   4.2
2323,557980.800,  35.162678611, 136.900462167,   49.4177,  1, 23,  0.0038,  0.0032,  0.0110,  0.0010, -0.0015,  0.0026,  0.80,   3.6
2323,557981.000,  35.162678671, 136.900466943,   49.4275,  1, 23,  0.0038,  0.0031,  0.0109,  0.0009, -0.0015,  0.0026,  0.00,   3.6
2323,557981.200,  35.162678775, 136.900471710,   49.4256,  1, 23,  0.0038,  0.0031,  0.0109,  0.0009, -0.0015,  0.0026,  0.20,   3.1
2323,557981.400,  35.162676454, 136.900475873,   50.1077,  2, 22,  0.3426,  0.2941,  0.9495,  0.0753, -0.0892,  0.1238,  0.40,   2.4
2323,557981.600,  35.162676513, 136.900480432,   50.0838,  2, 22,  0.3426,  0.2941,  0.9495,  0.0753, -0.0891,  0.1238,  0.60,   2.8
2323,557981.800,  35.162676386, 136.900484799,   50.1086,  2, 22,  0.3477,  0.2953,  0.9708,  0.0850, -0.1150,  0.0578,  0.80,   2.8
2323,557982.000,  35.162677896, 136.900488302,   49.9294,  2, 22,  0.3477,  0.2953,  0.9708,  0.0849, -0.1150,  0.0578,  0.00,   2.7
2323,557982.200,  35.162677801, 136.900492573,   49.9348,  2, 22,  0.3477,  0.2953,  0.9708,  0.0849, -0.1150,  0.0579,  0.20,   2.7
2323,557982.400,  35.162678112, 136.900496703,   49.8996,  2, 22,  0.3477,  0.2953,  0.9708,  0.0849, -0.1149,  0.0579,  0.40,   2.5
2323,557982.600,  35.162678375, 136.900500957,   49.9588,  2, 22,  0.3477,  0.2953,  0.9708,  0.0849, -0.1149,  0.0579,  0.60,   2.9
2323,557982.800,  35.162678472, 136.900505283,   49.9274,  2, 22,  0.3477,  0.2953,  0.9708,  0.0849, -0.1149,  0.0580,  0.80,   2.7
2323,557983.000,  35.162678404, 136.900509060,   50.0379,  2, 22,  0.3477,  0.2953,  0.9708,  0.0849, -0.1149,  0.0580,  0.00,   2.5
2323,557983.200,  35.162678429, 136.900512929,   50.0594,  2, 22,  0.3477,  0.2953,  0.9708,  0.0849, -0.1149,  0.0580,  0.20,   2.3
2323,557983.400,  35.162679594, 136.900519843,   49.4559,  1, 22,  0.0038,  0.0031,  0.0109,  0.0009, -0.0015,  0.0026,  0.40,   3.2
2323,557983.600,  35.162679671, 136.900523966,   49.4520,  1, 22,  0.0038,  0.0031,  0.0109,  0.0009, -0.0015,  0.0026,  0.60,   3.6
2323,557983.800,  35.162679720, 136.900528012,   49.4494,  1, 22,  0.0038,  0.0032,  0.0110,  0.0010, -0.0015,  0.0026,  0.80,   3.3
2323,557984.000,  35.162677929, 136.900529590,   49.8852,  2, 22,  0.3477,  0.2953,  0.9708,  0.0849, -0.1148,  0.0582,  0.00,   2.6
2323,557984.200,  35.162679798, 136.900536264,   49.4539,  1, 23,  0.0038,  0.0031,  0.0109,  0.0009, -0.0015,  0.0026,  0.20,   4.9
2323,557984.400,  35.162677516, 136.900537776,   50.1670,  2, 27,  0.3036,  0.2699,  0.8941,  0.1490, -0.1151,  0.0259,  0.40,   2.9
2323,557984.600,  35.162679905, 136.900544627,   49.4675,  1, 27,  0.0033,  0.0029,  0.0101,  0.0016, -0.0010,  0.0018,  0.60,   3.2
2323,557984.800,  35.162677728, 136.900545987,   50.1102,  2, 27,  0.3036,  0.2699,  0.8941,  0.1490, -0.1151,  0.0259,  0.80,   2.8
2323,557985.000,  35.162679411, 136.900549841,   50.4524,  2, 27,  0.3036,  0.2699,  0.8941,  0.1490, -0.1151,  0.0260,  0.00,   2.9
2323,557985.200,  35.162679566, 136.900553796,   50.5174,  2, 27,  0.3036,  0.2699,  0.8941,  0.1490, -0.1151,  0.0260,  0.20,   2.6
2323,557985.400,  35.162680014, 136.900557619,   50.2176,  2, 26,  0.3053,  0.2700,  0.9170,  0.1481, -0.1071, -0.0767,  0.40,   2.2
2323,557985.600,  35.162679993, 136.900561508,   50.1558,  2, 26,  0.3053,  0.2700,  0.9170,  0.1481, -0.1070, -0.0767,  0.60,   2.5
2323,557985.800,  35.162680101, 136.900565206,   50.1209,  2, 26,  0.3053,  0.2700,  0.9170,  0.1481, -0.1070, -0.0767,  0.80,   2.2
2323,557986.000,  35.162680810, 136.900569116,   50.1170,  2, 26,  0.3053,  0.2700,  0.9170,  0.1481, -0.1070, -0.0767,  0.00,   2.2
2323,557986.200,  35.162680864, 136.900572622,   50.2689,  2, 27,  0.3019,  0.2684,  0.8930,  0.1434, -0.0721,  0.0601,  0.20,   1.8
2323,557986.400,  35.162680884, 136.900576293,   50.2678,  2, 27,  0.3019,  0.2684,  0.8930,  0.1434, -0.0721,  0.0601,  0.40,   1.7
2323,557986.600,  35.162681370, 136.900580177,   50.1853,  2, 26,  0.3053,  0.2700,  0.9170,  0.1481, -0.1069, -0.0767,  0.60,   1.8
2323,557986.800,  35.162681713, 136.900583670,   50.2850,  2, 26,  0.3053,  0.2700,  0.9170,  0.1481, -0.1069, -0.0767,  0.80,   2.3
2323,557987.000,  35.162680845, 136.900587932,   50.3214,  2, 26,  0.3053,  0.2700,  0.9171,  0.1481, -0.1069, -0.0766,  0.00,   1.8
2323,557987.200,  35.162680870, 136.900591220,   50.2307,  2, 26,  0.3053,  0.2700,  0.9171,  0.1481, -0.1069, -0.0766,  0.20,   2.0
2323,557987.400,  35.162680858, 136.900593918,   50.2518,  2, 25,  0.3074,  0.2770,  0.9287,  0.1404, -0.1431, -0.0250,  0.40,   2.3
2323,557987.600,  35.162680937, 136.900596448,   50.2816,  2, 26,  0.3053,  0.2700,  0.9171,  0.1481, -0.1068, -0.0766,  0.60,   2.5
2323,557987.800,  35.162680962, 136.900599001,   50.1864,  2, 26,  0.3053,  0.2700,  0.9171,  0.1481, -0.1068, -0.0766,  0.80,   2.8
2323,557988.000,  35.162681142, 136.900601306,   49.8901,  2, 26,  0.3053,  0.2700,  0.9171,  0.1480, -0.1068, -0.0766,  0.00,   2.2
2323,557988.200,  35.162681090, 136.900603319,   49.8983,  2, 26,  0.3053,  0.2700,  0.9171,  0.1480, -0.1068, -0.0766,  0.20,   2.7
2323,557988.400,  35.162680740, 136.900604994,   49.9163,  2, 26,  0.3053,  0.2700,  0.9171,  0.1480, -0.1068, -0.0766,  0.40,   2.3
2323,557988.600,  35.162680505, 136.900607003,   49.8814,  2, 26,  0.3053,  0.2700,  0.9171,  0.1480, -0.1067, -0.0766,  0.60,   2.3
2323,557988.800,  35.162680731, 136.900608886,   49.8988,  2, 26,  0.3053,  0.2700,  0.9171,  0.1480, -0.1067, -0.0766,  0.80,   2.2
2323,557989.000,  35.162680460, 136.900610209,   49.6705,  2, 26,  0.3053,  0.2700,  0.9171,  0.1480, -0.1067, -0.0765,  0.00,   2.1
2323,557989.200,  35.162680654, 136.900611755,   49.6010,  2, 26,  0.3053,  0.2700,  0.9171,  0.1480, -0.1067, -0.0765,  0.20,   2.3
2323,557989.400,  35.162680746, 136.900613175,   49.5356,  2, 26,  0.3053,  0.2700,  0.9171,  0.1480, -0.1067, -0.0765,  0.40,   2.2
2323,557989.600,  35.162680784, 136.900614591,   49.5929,  2, 26,  0.3053,  0.2700,  0.9171,  0.1480, -0.1066, -0.0765,  0.60,   2.3
2323,557989.800,  35.162680874, 136.900615728,   49.6109,  2, 26,  0.3053,  0.2700,  0.9172,  0.1480, -0.1066, -0.0765,  0.80,   2.4
2323,557990.000,  35.162681603, 136.900615891,   49.7577,  2, 26,  0.3053,  0.2700,  0.9172,  0.1480, -0.1066, -0.0765,  0.00,   1.9
2323,557990.200,  35.162681620, 136.900616617,   49.8259,  2, 26,  0.3053,  0.2700,  0.9172,  0.1480, -0.1066, -0.0765,  0.20,   2.0
2323,557990.400,  35.162681749, 136.900617592,   49.9472,  2, 26,  0.3053,  0.2700,  0.9172,  0.1480, -0.1066, -0.0765,  0.40,   2.1
2323,557990.600,  35.162681663, 136.900618338,   50.0053,  2, 26,  0.3053,  0.2700,  0.9172,  0.1480, -0.1065, -0.0765,  0.60,   1.9
2323,557990.800,  35.162681678, 136.900618962,   50.0274,  2, 26,  0.3053,  0.2700,  0.9172,  0.1480, -0.1065, -0.0764,  0.80,   1.9
2323,557991.000,  35.162679570, 136.900617944,   50.4566,  2, 26,  0.3053,  0.2700,  0.9172,  0.1480, -0.1065, -0.0764,  0.00,   2.0
2323,557991.200,  35.162679019, 136.900618493,   50.4485,  2, 26,  0.3053,  0.2700,  0.9172,  0.1480, -0.1065, -0.0764,  0.20,   2.0
2323,557991.400,  35.162678566, 136.900618609,   50.4636,  2, 26,  0.3053,  0.2700,  0.9172,  0.1480, -0.1065, -0.0764,  0.40,   2.1
2323,557991.600,  35.162678413, 136.900618776,   50.3999,  2, 26,  0.3053,  0.2700,  0.9172,  0.1480, -0.1064, -0.0764,  0.60,   2.1
2323,557991.800,  35.162677910, 136.900619204,   50.3489,  2, 26,  0.3053,  0.2700,  0.9172,  0.1480, -0.1064, -0.0764,  0.80,   2.2
2323,557992.000,  35.162678884, 136.900621763,   49.9456,  2, 26,  0.3053,  0.2700,  0.9172,  0.1480, -0.1064, -0.0764,  0.00,   2.0
2323,557992.200,  35.162678391, 136.900622454,   50.4273,  2, 28,  0.3007,  0.2680,  0.8754,  0.1445, -0.0858,  0.0913,  0.20,   2.1
2323,557992.400,  35.162678097, 136.900622818,   50.3538,  2, 27,  0.2995,  0.2732,  0.8708,  0.1313, -0.1043,  0.1454,  0.40,   2.2
2323,557992.600,  35.162677924, 136.900623019,   50.2918,  2, 27,  0.2995,  0.2732,  0.8708,  0.1313, -0.1043,  0.1454,  0.60,   2.0
2323,557992.800,  35.162677734, 136.900623145,   50.2446,  2, 27,  0.2995,  0.2732,  0.8708,  0.1313, -0.1043,  0.1454,  0.80,   2.2
2323,557993.000,  35.162677835, 136.900623390,   50.7252,  2, 27,  0.3002,  0.2753,  0.9006,  0.1339, -0.0554,  0.1605,  0.00,   1.9
2323,557993.200,  35.162677486, 136.900623440,   50.6456,  2, 27,  0.3002,  0.2753,  0.9006,  0.1339, -0.0553,  0.1605,  0.20,   2.0
2323,557993.400,  35.162676883, 136.900624189,   50.4900,  2, 28,  0.2977,  0.2688,  0.8900,  0.1423,  0.0718,  0.1428,  0.40,   2.0
2323,557993.600,  35.162676749, 136.900624296,   50.4695,  2, 28,  0.2977,  0.2688,  0.8900,  0.1423,  0.0718,  0.1428,  0.60,   2.0
2323,557993.800,  35.162676368, 136.900624449,   50.4286,  2, 28,  0.2977,  0.2688,  0.8900,  0.1423,  0.0718,  0.1428,  0.80,   2.0
2323,557994.000,  35.162675373, 136.900623821,   50.1422,  2, 28,  0.2977,  0.2688,  0.8900,  0.1423,  0.0719,  0.1428,  0.00,   2.1
2323,557994.200,  35.162674962, 136.900624011,   50.0569,  2, 28,  0.2977,  0.2688,  0.8900,  0.1423,  0.0719,  0.1428,  0.20,   2.1
2323,557994.400,  35.162674821, 136.900624105,   50.0548,  2, 28,  0.2977,  0.2688,  0.8900,  0.1423,  0.0719,  0.1428,  0.40,   2.1
2323,557994.600,  35.162674513, 136.900624145,   49.9983,  2, 28,  0.2977,  0.2688,  0.8900,  0.1423,  0.0719,  0.1428,  0.60,   2.2
2323,557994.800,  35.162674906, 136.900623016,   50.1938,  2, 27,  0.3002,  0.2753,  0.9007,  0.1339, -0.0551,  0.1605,  0.80,   2.1
2323,557995.000,  35.162674492, 136.900623191,   49.9361,  2, 27,  0.3002,  0.2753,  0.9007,  0.1339, -0.0550,  0.1605,  0.00,   2.0
2323,557995.200,  35.162674407, 136.900623147,   49.9923,  2, 27,  0.3002,  0.2753,  0.9007,  0.1339, -0.0550,  0.1605,  0.20,   2.0
2323,557995.400,  35.162674368, 136.900623303,   50.0174,  2, 27,  0.3002,  0.2753,  0.9007,  0.1339, -0.0550,  0.1605,  0.40,   2.1
2323,557995.600,  35.162674087, 136.900623359,   49.9988,  2, 27,  0.3002,  0.2753,  0.9007,  0.1339, -0.0549,  0.1605,  0.60,   2.0
2323,557995.800,  35.162673856, 136.900623160,   49.9450,  2, 27,  0.3002,  0.2753,  0.9007,  0.1339, -0.0549,  0.1605,  0.80,   2.0
2323,557996.000,  35.162674486, 136.900624318,   49.8685,  2, 28,  0.2977,  0.2688,  0.8900,  0.1423,  0.0721,  0.1428,  0.00,   2.0
2323,557996.200,  35.162674283, 136.900624246,   49.8477,  2, 28,  0.2977,  0.2688,  0.8901,  0.1423,  0.0721,  0.1428,  0.20,   2.1
2323,557996.400,  35.162674300, 136.900624494,   49.8587,  2, 28,  0.2977,  0.2688,  0.8901,  0.1423,  0.0722,  0.1428,  0.40,   2.0
2323,557996.600,  35.162674104, 136.900624667,   49.8481,  2, 28,  0.2977,  0.2688,  0.8901,  0.1423,  0.0722,  0.1428,  0.60,   2.0
2323,557996.800,  35.162673974, 136.900624610,   49.8370,  2, 28,  0.2977,  0.2688,  0.8901,  0.1422,  0.0722,  0.1429,  0.80,   2.1
2323,557997.000,  35.162673680, 136.900625289,   49.4648,  2, 27,  0.2990,  0.2744,  1.0032,  0.1366, -0.1427,  0.1830,  0.00,   2.9
2323,557997.200,  35.162680986, 136.900622544,   49.5714,  1, 26,  0.0033,  0.0030,  0.0131,  0.0014, -0.0027,  0.0030,  0.20,   3.1
2323,557997.400,  35.162680979, 136.900622548,   49.5708,  1, 27,  0.0033,  0.0029,  0.0126,  0.0016, -0.0021,  0.0026,  0.40,   3.1
2323,557997.600,  35.162680980, 136.900622548,   49.5673,  1, 27,  0.0033,  0.0030,  0.0127,  0.0016, -0.0021,  0.0026,  0.60,   3.3
2323,557997.800,  35.162680988, 136.900622543,   49.5736,  1, 26,  0.0034,  0.0031,  0.0132,  0.0014, -0.0027,  0.0030,  0.80,   3.3
2323,557998.000,  35.162680989, 136.900622538,   49.5715,  1, 27,  0.0033,  0.0029,  0.0126,  0.0016, -0.0021,  0.0026,  0.00,   3.1
2323,557998.200,  35.162680996, 136.900622546,   49.5740,  1, 27,  0.0033,  0.0029,  0.0126,  0.0016, -0.0021,  0.0026,  0.20,   3.1
