% program   : RTKLIB ver.2.4.3
% inp file  : /kaggle/input/precise-positioning-2024/ppc2024/train/tokyo1/rover.obs
% inp file  : /kaggle/input/precise-positioning-2024/ppc2024/train/tokyo1/base.obs
% inp file  : /kaggle/input/precise-positioning-2024/ppc2024/train/tokyo1/base.nav
% obs start : 2024/07/23 04:58:00.0 GPST (week2324 190680.0s)
% obs end   : 2024/07/23 05:34:00.0 GPST (week2324 192840.0s)
% ref pos   : 35.666334260, 139.792201809,   59.7345
%
% (lat/lon/height=WGS84/ellipsoidal,Q=1:fix,2:float,3:sbas,4:dgps,5:single,6:ppp,ns=# of satellites)
%  GPST        , latitude(deg),longitude(deg), height(m),  Q, ns,  sdn(m),  sde(m),  sdu(m), sdne(m), sdeu(m), sdun(m),age(s), ratio
2324,190680.000,  35.667559848, 139.791090556,   39.4404,  1, 32,  0.0025,  0.0028,  0.0071,  0.0010, -0.0020, -0.0019,  0.00,   9.7
2324,190680.200,  35.667559846, 139.791090556,   39.4415,  1, 32,  0.0025,  0.0028,  0.0071,  0.0010, -0.0020, -0.0019,  0.20,  10.0
2324,190680.400,  35.667559851, 139.791090552,   39.4405,  1, 32,  0.0025,  0.0028,  0.0071,  0.0010, -0.0020, -0.0019,  0.40,  10.7
2324,190680.600,  35.667559849, 139.791090568,   39.4391,  1, 32,  0.0025,  0.0028,  0.0071,  0.0010, -0.0020, -0.0019,  0.60,   9.4
2324,190680.800,  35.667559843, 139.791090568,   39.4397,  1, 32,  0.0025,  0.0028,  0.0071,  0.0011, -0.0020, -0.0019,  0.80,  10.1
2324,190681.000,  35.667559847, 139.791090553,   39.4405,  1, 32,  0.0025,  0.0028,  0.0071,  0.0010, -0.0020, -0.0019,  0.00,   9.9
2324,190681.200,  35.667559847, 139.791090544,   39.4400,  1, 32,  0.0025,  0.0028,  0.0071,  0.0010, -0.0020, -0.0019,  0.20,  10.3
2324,190681.400,  35.667559848, 139.791090556,   39.4406,  1, 33,  0.0025,  0.0028,  0.0071,  0.0010, -0.0020, -0.0019,  0.40,  10.2
2324,190681.600,  35.667559849, 139.791090549,   39.4398,  1, 33,  0.0025,  0.0028,  0.0071,  0.0010, -0.0020, -0.0019,  0.60,  11.5
2324,190681.800,  35.667559845, 139.791090555,   39.4408,  1, 33,  0.0025,  0.0028,  0.0071,  0.0011, -0.0020, -0.0019,  0.80,  11.6
2324,190682.000,  35.667559847, 139.791090533,   39.4423,  1, 32,  0.0025,  0.0028,  0.0071,  0.0010, -0.0020, -0.0019,  0.00,  11.3
2324,190682.200,  35.667559846, 139.791090539,   39.4425,  1, 32,  0.0025,  0.0028,  0.0071,  0.0010, -0.0020, -0.0019,  0.20,  11.8
2324,190682.400,  35.667559848, 139.791090541,   39.4439,  1, 32,  0.0025,  0.0028,  0.0071,  0.0010, -0.0020, -0.0019,  0.40,  12.3
2324,190682.600,  35.667559837, 139.791090545,   39.4453,  1, 32,  0.0025,  0.0028,  0.0071,  0.0010, -0.0020, -0.0019,  0.60,  12.7
2324,190682.800,  35.667559844, 139.791090549,   39.4418,  1, 32,  0.0025,  0.0028,  0.0071,  0.0011, -0.0020, -0.0019,  0.80,  11.3
2324,190683.000,  35.667559848, 139.791090542,   39.4422,  1, 32,  0.0025,  0.0028,  0.0071,  0.0010, -0.0020, -0.0019,  0.00,   9.1
2324,190683.200,  35.667559850, 139.791090538,   39.4442,  1, 32,  0.0025,  0.0028,  0.0071,  0.0010, -0.0020, -0.0019,  0.20,  10.3
2324,190683.400,  35.667559842, 139.791090538,   39.4442,  1, 32,  0.0025,  0.0028,  0.0071,  0.0010, -0.0020, -0.0019,  0.40,   9.8
2324,190683.600,  35.667559842, 139.791090540,   39.4415,  1, 32,  0.0025,  0.0028,  0.0071,  0.0010, -0.0020, -0.0019,  0.60,   8.9
2324,190683.800,  35.667559844, 139.791090542,   39.4433,  1, 32,  0.0025,  0.0028,  0.0071,  0.0010, -0.0020, -0.0019,  0.80,  10.5
2324,190684.000,  35.667559845, 139.791090543,   39.4393,  1, 32,  0.0025,  0.0028,  0.0071,  0.0010, -0.0020, -0.0019,  0.00,  10.7
2324,190684.200,  35.667559847, 139.791090547,   39.4380,  1, 32,  0.0025,  0.0028,  0.0071,  0.0010, -0.0020, -0.0019,  0.20,   9.5
2324,190684.400,  35.667559840, 139.791090543,   39.4387,  1, 32,  0.0025,  0.0028,  0.0071,  0.0010, -0.0020, -0.0019,  0.40,  10.3
2324,190684.600,  35.667559846, 139.791090536,   39.4380,  1, 32,  0.0025,  0.0028,  0.0071,  0.0010, -0.0020, -0.0019,  0.60,  12.4
2324,190684.800,  35.667559842, 139.791090547,   39.4401,  1, 32,  0.0025,  0.0028,  0.0071,  0.0010, -0.0020, -0.0019,  0.80,   9.7
2324,190685.000,  35.667559850, 139.791090536,   39.4408,  1, 32,  0.0025,  0.0028,  0.0071,  0.0010, -0.0020, -0.0019,  0.00,   9.7
2324,190685.200,  35.667559844, 139.791090542,   39.4394,  1, 32,  0.0025,  0.0028,  0.0071,  0.0010, -0.0020, -0.0019,  0.20,   9.9
2324,190685.400,  35.667559842, 139.791090534,   39.4418,  1, 32,  0.0025,  0.0028,  0.0071,  0.0010, -0.0020, -0.0019,  0.40,  11.4
2324,190685.600,  35.667559848, 139.791090548,   39.4421,  1, 32,  0.0025,  0.0028,  0.0071,  0.0010, -0.0020, -0.0019,  0.60,   9.3
2324,190685.800,  35.667559851, 139.791090542,   39.4404,  1, 32,  0.0025,  0.0028,  0.0071,  0.0010, -0.0020, -0.0019,  0.80,   9.4
2324,190686.000,  35.667559839, 139.791090539,   39.4411,  1, 32,  0.0025,  0.0028,  0.0071,  0.0010, -0.0020, -0.0019,  0.00,   7.5
2324,190686.200,  35.667559846, 139.791090545,   39.4415,  1, 32,  0.0025,  0.0028,  0.0071,  0.0010, -0.0020, -0.0019,  0.20,   7.5
2324,190686.400,  35.667559844, 139.791090549,   39.4388,  1, 32,  0.0025,  0.0028,  0.0071,  0.0010, -0.0020, -0.0019,  0.40,   8.3
2324,190686.600,  35.667559842, 139.791090551,   39.4389,  1, 32,  0.0025,  0.0028,  0.0071,  0.0010, -0.0020, -0.0019,  0.60,   8.2
2324,190686.800,  35.667559835, 139.791090536,   39.4404,  1, 33,  0.0025,  0.0028,  0.0071,  0.0010, -0.0020, -0.0019,  0.80,   7.8
2324,190687.000,  35.667559836, 139.791090551,   39.4405,  1, 33,  0.0025,  0.0028,  0.0071,  0.0010, -0.0020, -0.0019,  0.00,  10.1
2324,190687.200,  35.667559831, 139.791090537,   39.4385,  1, 32,  0.0025,  0.0028,  0.0071,  0.0010, -0.0020, -0.0019,  0.20,   9.2
2324,190687.400,  35.667559826, 139.791090550,   39.4379,  1, 32,  0.0025,  0.0028,  0.0071,  0.0010, -0.0020, -0.0019,  0.40,   9.9
2324,190687.600,  35.667559801, 139.791090546,   39.4333,  1, 32,  0.0025,  0.0028,  0.0071,  0.0010, -0.0020, -0.0019,  0.60,   9.2
2324,190687.800,  35.667559815, 139.791090551,   39.4339,  1, 32,  0.0025,  0.0028,  0.0071,  0.0010, -0.0020, -0.0019,  0.80,   9.7
2324,190688.000,  35.667559807, 139.791090546,   39.4356,  1, 32,  0.0025,  0.0028,  0.0071,  0.0010, -0.0020, -0.0019,  0.00,   9.1
2324,190688.200,  35.667559815, 139.791090544,   39.4323,  1, 32,  0.0025,  0.0028,  0.0071,  0.0010, -0.0020, -0.0019,  0.20,  10.6
2324,190688.400,  35.667559810, 139.791090563,   39.4340,  1, 32,  0.0025,  0.0028,  0.0071,  0.0010, -0.0020, -0.0019,  0.40,  10.2
2324,190688.600,  35.667559810, 139.791090554,   39.4324,  1, 32,  0.0025,  0.0028,  0.0071,  0.0010, -0.0020, -0.0019,  0.60,   9.9
2324,190688.800,  35.667559803, 139.791090551,   39.4337,  1, 32,  0.0025,  0.0028,  0.0071,  0.0010, -0.0020, -0.0019,  0.80,   8.7
2324,190689.000,  35.667559806, 139.791090554,   39.4364,  1, 32,  0.0025,  0.0028,  0.0071,  0.0010, -0.0020, -0.0019,  0.00,   8.4
2324,190689.200,  35.667559807, 139.791090545,   39.4379,  1, 32,  0.0025,  0.0028,  0.0071,  0.0010, -0.0020, -0.0019,  0.20,  10.9
2324,190689.400,  35.667559815, 139.791090540,   39.4373,  1, 32,  0.0025,  0.0028,  0.0071,  0.0010, -0.0020, -0.0019,  0.40,  10.4
2324,190689.600,  35.667559811, 139.791090555,   39.4377,  1, 32,  0.0025,  0.0028,  0.0071,  0.0010, -0.0020, -0.0019,  0.60,  10.6
2324,190689.800,  35.667559819, 139.791090537,   39.4364,  1, 32,  0.0025,  0.0028,  0.0071,  0.0010, -0.0020, -0.0019,  0.80,   9.5
2324,190690.000,  35.667559814, 139.791090538,   39.4354,  1, 32,  0.0025,  0.0028,  0.0071,  0.0010, -0.0020, -0.0019,  0.00,   8.6
2324,190690.200,  35.667559807, 139.791090555,   39.4351,  1, 32,  0.0025,  0.0028,  0.0071,  0.0010, -0.0020, -0.0019,  0.20,   8.1
2324,190690.400,  35.667559804, 139.791090538,   39.4352,  1, 32,  0.0025,  0.0028,  0.0071,  0.0010, -0.0020, -0.0019,  0.40,   8.5
2324,190690.600,  35.667559819, 139.791090546,   39.4362,  1, 32,  0.0025,  0.0028,  0.0071,  0.0010, -0.0020, -0.0019,  0.60,  10.0
2324,190690.800,  35.667559803, 139.791090546,   39.4353,  1, 32,  0.0025,  0.0028,  0.0071,  0.0010, -0.0020, -0.0019,  0.80,   9.8
2324,190691.000,  35.667559810, 139.791090553,   39.4359,  1, 32,  0.0025,  0.0028,  0.0071,  0.0010, -0.0020, -0.0019,  0.00,   8.4
2324,190691.200,  35.667559812, 139.791090545,   39.4372,  1, 32,  0.0025,  0.0028,  0.0071,  0.0010, -0.0020, -0.0019,  0.20,   8.2
2324,190691.400,  35.667559808, 139.791090549,   39.4367,  1, 32,  0.0025,  0.0028,  0.0071,  0.0010, -0.0020, -0.0019,  0.40,   8.8
2324,190691.600,  35.667559804, 139.791090550,   39.4393,  1, 32,  0.0025,  0.0028,  0.0071,  0.0010, -0.0020, -0.0019,  0.60,   8.9
2324,190691.800,  35.667559800, 139.791090548,   39.4366,  1, 32,  0.0025,  0.0028,  0.0071,  0.0010, -0.0020, -0.0019,  0.80,   8.5
2324,190692.000,  35.667559817, 139.791090540,   39.4374,  1, 32,  0.0025,  0.0028,  0.0071,  0.0010, -0.0020, -0.0019,  0.00,   9.2
2324,190692.200,  35.667559800, 139.791090529,   39.4354,  1, 32,  0.0025,  0.0028,  0.0071,  0.0010, -0.0020, -0.0019,  0.20,  10.3
2324,190692.400,  35.667559805, 139.791090545,   39.4375,  1, 32,  0.0025,  0.0028,  0.0071,  0.0010, -0.0020, -0.0019,  0.40,   9.7
2324,190692.600,  35.667559806, 139.791090552,   39.4357,  1, 32,  0.0025,  0.0028,  0.0071,  0.0010, -0.0020, -0.0019,  0.60,   9.6
2324,190692.800,  35.667559800, 139.791090542,   39.4368,  1, 32,  0.0025,  0.0028,  0.0071,  0.0010, -0.0020, -0.0019,  0.80,  11.2
2324,190693.000,  35.667559818, 139.791090547,   39.4351,  1, 32,  0.0025,  0.0028,  0.0071,  0.0010, -0.0020, -0.0019,  0.00,   9.4
2324,190693.200,  35.667559819, 139.791090549,   39.4340,  1, 32,  0.0025,  0.0028,  0.0071,  0.0010, -0.0020, -0.0019,  0.20,   8.5
2324,190693.400,  35.667559811, 139.791090550,   39.4338,  1, 32,  0.0025,  0.0028,  0.0071,  0.0010, -0.0020, -0.0019,  0.40,   8.9
2324,190693.600,  35.667559813, 139.791090554,   39.4352,  1, 32,  0.0025,  0.0028,  0.0071,  0.0010, -0.0020, -0.0019,  0.60,   8.9
2324,190693.800,  35.667559816, 139.791090550,   39.4347,  1, 32,  0.0025,  0.0028,  0.0071,  0.0010, -0.0020, -0.0019,  0.80,   8.5
2324,190694.000,  35.667559811, 139.791090548,   39.4361,  1, 32,  0.0025,  0.0028,  0.0071,  0.0010, -0.0020, -0.0019,  0.00,   9.5
2324,190694.200,  35.667559809, 139.791090550,   39.4353,  1, 32,  0.0025,  0.0028,  0.0071,  0.0010, -0.0020, -0.0019,  0.20,  11.0
2324,190694.400,  35.667559809, 139.791090550,   39.4358,  1, 32,  0.0025,  0.0028,  0.0071,  0.0010, -0.0020, -0.0019,  0.40,   9.2
2324,190694.600,  35.667559804, 139.791090557,   39.4365,  1, 32,  0.0025,  0.0028,  0.0071,  0.0010, -0.0020, -0.0019,  0.60,   9.1
2324,190694.800,  35.667559805, 139.791090560,   39.4346,  1, 32,  0.0025,  0.0028,  0.0071,  0.0010, -0.0020, -0.0019,  0.80,   9.0
2324,190695.000,  35.667559806, 139.791090544,   39.4363,  1, 32,  0.0025,  0.0028,  0.0071,  0.0010, -0.0020, -0.0019,  0.00,   8.9
2324,190695.200,  35.667559808, 139.791090540,   39.4348,  1, 32,  0.0025,  0.0028,  0.0071,  0.0010, -0.0020, -0.0019,  0.20,   7.7
2324,190695.400,  35.667559801, 139.791090549,   39.4355,  1, 32,  0.0025,  0.0028,  0.0071,  0.0010, -0.0020, -0.0019,  0.40,   8.3
2324,190695.600,  35.667559806, 139.791090552,   39.4331,  1, 32,  0.0025,  0.0028,  0.0071,  0.0010, -0.0020, -0.0019,  0.60,   8.3
2324,190695.800,  35.667559797, 139.791090553,   39.4358,  1, 32,  0.0025,  0.0028,  0.0071,  0.0010, -0.0020, -0.0019,  0.80,   7.3
2324,190696.000,  35.667559812, 139.791090553,   39.4358,  1, 32,  0.0025,  0.0028,  0.0071,  0.0010, -0.0020, -0.0019,  0.00,  10.1
2324,190696.200,  35.667559810, 139.791090550,   39.4353,  1, 32,  0.0025,  0.0028,  0.0071,  0.0010, -0.0020, -0.0019,  0.20,  10.9
2324,190696.400,  35.667559806, 139.791090548,   39.4369,  1, 32,  0.0025,  0.0028,  0.0071,  0.0010, -0.0020, -0.0019,  0.40,  11.1
2324,190696.600,  35.667559806, 139.791090556,   39.4370,  1, 32,  0.0025,  0.0028,  0.0071,  0.0010, -0.0020, -0.0019,  0.60,  12.2
2324,190696.800,  35.667559801, 139.791090561,   39.4357,  1, 32,  0.0025,  0.0028,  0.0071,  0.0010, -0.0020, -0.0019,  0.80,  10.9
2324,190697.000,  35.667559810, 139.791090544,   39.4354,  1, 32,  0.0025,  0.0028,  0.0071,  0.0010, -0.0020, -0.0019,  0.00,  10.3
2324,190697.200,  35.667559816, 139.791090542,   39.4337,  1, 32,  0.0025,  0.0028,  0.0071,  0.0010, -0.0020, -0.0019,  0.20,   8.8
2324,190697.400,  35.667559814, 139.791090552,   39.4350,  1, 32,  0.0025,  0.0028,  0.0071,  0.0010, -0.0020, -0.0019,  0.40,  10.9
2324,190697.600,  35.667559809, 139.791090547,   39.4350,  1, 32,  0.0025,  0.0028,  0.0071,  0.0010, -0.0020, -0.0019,  0.60,  10.6
2324,190697.800,  35.667559802, 139.791090552,   39.4350,  1, 32,  0.0025,  0.0028,  0.0071,  0.0010, -0.0020, -0.0019,  0.80,  10.4
2324,190698.000,  35.667559805, 139.791090552,   39.4364,  1, 32,  0.0025,  0.0028,  0.0071,  0.0010, -0.0020, -0.0019,  0.00,   8.9
2324,190698.200,  35.667559804, 139.791090552,   39.4367,  1, 32,  0.0025,  0.0028,  0.0071,  0.0010, -0.0020, -0.0019,  0.20,  11.8
2324,190698.400,  35.667559809, 139.791090556,   39.4360,  1, 32,  0.0025,  0.0028,  0.0071,  0.0010, -0.0020, -0.0019,  0.40,  12.3
2324,190698.600,  35.667559809, 139.791090541,   39.4379,  1, 32,  0.0025,  0.0028,  0.0071,  0.0010, -0.0020, -0.0019,  0.60,  13.6
2324,190698.800,  35.667559806, 139.791090551,   39.4380,  1, 32,  0.0025,  0.0028,  0.0071,  0.0010, -0.0020, -0.0019,  0.80,  14.2
2324,190699.000,  35.667559821, 139.791090532,   39.4330,  1, 32,  0.0025,  0.0028,  0.0071,  0.0010, -0.0020, -0.0019,  0.00,  10.1
2324,190699.200,  35.667559811, 139.791090543,   39.4332,  1, 32,  0.0025,  0.0028,  0.0071,  0.0010, -0.0020, -0.0019,  0.20,   8.7
2324,190699.400,  35.667559815, 139.791090548,   39.4334,  1, 32,  0.0025,  0.0028,  0.0071,  0.0010, -0.0020, -0.0019,  0.40,   8.8
2324,190699.600,  35.667559822, 139.791090534,   39.4328,  1, 32,  0.0025,  0.0028,  0.0071,  0.0010, -0.0020, -0.0019,  0.60,   9.7
2324,190699.800,  35.667559817, 139.791090545,   39.4325,  1, 32,  0.0025,  0.0028,  0.0071,  0.0010, -0.0020, -0.0019,  0.80,   9.2
2324,190700.000,  35.667559822, 139.791090538,   39.4365,  1, 32,  0.0025,  0.0028,  0.0071,  0.0010, -0.0020, -0.0019,  0.00,  11.6
2324,190700.200,  35.667559822, 139.791090545,   39.4348,  1, 32,  0.0025,  0.0028,  0.0071,  0.0010, -0.0020, -0.0019,  0.20,   9.7
2324,190700.400,  35.667559813, 139.791090542,   39.4347,  1, 32,  0.0025,  0.0028,  0.0071,  0.0010, -0.0020, -0.0019,  0.40,  11.1
2324,190700.600,  35.667559822, 139.791090551,   39.4345,  1, 32,  0.0025,  0.0028,  0.0071,  0.0010, -0.0020, -0.0019,  0.60,  11.0
2324,190700.800,  35.667559817, 139.791090547,   39.4358,  1, 32,  0.0025,  0.0028,  0.0071,  0.0010, -0.0020, -0.0019,  0.80,  11.0
2324,190701.000,  35.667559815, 139.791090553,   39.4360,  1, 32,  0.0025,  0.0028,  0.0071,  0.0010, -0.0020, -0.0019,  0.00,  11.5
2324,190701.200,  35.667559807, 139.791090544,   39.4384,  1, 32,  0.0025,  0.0028,  0.0071,  0.0010, -0.0020, -0.0019,  0.20,  12.5
2324,190701.400,  35.667559843, 139.791090520,   39.4342,  1, 32,  0.0025,  0.0028,  0.0071,  0.0010, -0.0020, -0.0019,  0.40,  11.5
2324,190701.600,  35.667559975, 139.791090351,   39.4336,  1, 32,  0.0025,  0.0028,  0.0071,  0.0010, -0.0020, -0.0019,  0.60,  10.5
2324,190701.800,  35.667560195, 139.791090102,   39.4330,  1, 32,  0.0025,  0.0028,  0.0071,  0.0010, -0.0020, -0.0019,  0.80,  10.4
2324,190702.000,  35.667560511, 139.791089740,   39.4300,  1, 32,  0.0025,  0.0028,  0.0071,  0.0010, -0.0020, -0.0019,  0.00,  10.4
2324,190702.200,  35.667560946, 139.791089288,   39.4258,  1, 32,  0.0025,  0.0028,  0.0071,  0.0010, -0.0020, -0.0019,  0.20,  13.7
2324,190702.400,  35.667561429, 139.791088662,   39.4341,  1, 33,  0.0025,  0.0027,  0.0068,  0.0009, -0.0016, -0.0016,  0.40,   4.0
2324,190702.600,  35.667562040, 139.791087947,   39.4335,  1, 33,  0.0025,  0.0027,  0.0068,  0.0009, -0.0016, -0.0016,  0.60,   4.8
2324,190702.800,  35.667562803, 139.791087211,   39.4194,  1, 31,  0.0026,  0.0029,  0.0076,  0.0013, -0.0025, -0.0023,  0.80,  15.8
2324,190703.000,  35.667563635, 139.791086245,   39.4262,  1, 32,  0.0025,  0.0028,  0.0071,  0.0010, -0.0020, -0.0019,  0.00,   5.9
2324,190703.200,  35.667564550, 139.791085181,   39.4267,  1, 33,  0.0025,  0.0027,  0.0068,  0.0009, -0.0016, -0.0016,  0.20,   9.4
2324,190703.400,  35.667565666, 139.791084034,   39.4187,  1, 33,  0.0025,  0.0027,  0.0068,  0.0009, -0.0016, -0.0016,  0.40,   9.7
2324,190703.600,  35.667566973, 139.791082630,   39.4161,  1, 33,  0.0025,  0.0027,  0.0068,  0.0009, -0.0016, -0.0016,  0.60,   9.4
2324,190703.800,  35.667568588, 139.791081052,   39.4037,  1, 32,  0.0025,  0.0028,  0.0071,  0.0010, -0.0020, -0.0019,  0.80,  16.2
2324,190704.000,  35.667570445, 139.791079013,   39.4145,  1, 31,  0.0025,  0.0028,  0.0071,  0.0010, -0.0020, -0.0019,  0.00,  13.7
2324,190704.200,  35.667572691, 139.791076743,   39.4061,  1, 31,  0.0025,  0.0028,  0.0071,  0.0010, -0.0020, -0.0019,  0.20,  12.6
2324,190704.400,  35.667575150, 139.791074153,   39.4143,  1, 31,  0.0025,  0.0028,  0.0071,  0.0010, -0.0020, -0.0019,  0.40,  13.8
2324,190704.600,  35.667577814, 139.791071546,   39.4100,  1, 32,  0.0025,  0.0027,  0.0068,  0.0009, -0.0016, -0.0016,  0.60,  17.8
2324,190704.800,  35.667580568, 139.791068750,   39.4147,  1, 33,  0.0025,  0.0027,  0.0069,  0.0009, -0.0017, -0.0016,  0.80,  19.6
2324,190705.000,  35.667583541, 139.791065828,   39.4054,  1, 33,  0.0025,  0.0027,  0.0068,  0.0009, -0.0016, -0.0016,  0.00,  19.6
2324,190705.200,  35.667586805, 139.791062600,   39.4164,  1, 33,  0.0025,  0.0027,  0.0068,  0.0009, -0.0016, -0.0016,  0.20,  15.7
2324,190705.400,  35.667590254, 139.791059147,   39.4169,  1, 33,  0.0025,  0.0027,  0.0068,  0.0009, -0.0016, -0.0016,  0.40,   8.9
2324,190705.600,  35.667594001, 139.791055444,   39.4244,  1, 33,  0.0025,  0.0027,  0.0068,  0.0009, -0.0016, -0.0016,  0.60,   5.7
2324,190705.800,  35.667598073, 139.791051499,   39.4233,  1, 32,  0.0025,  0.0028,  0.0072,  0.0011, -0.0020, -0.0020,  0.80,  20.8
2324,190706.000,  35.667602366, 139.791047351,   39.4303,  1, 32,  0.0025,  0.0028,  0.0071,  0.0010, -0.0020, -0.0019,  0.00,   7.5
2324,190706.200,  35.667606960, 139.791043025,   39.4426,  1, 32,  0.0025,  0.0028,  0.0071,  0.0010, -0.0020, -0.0019,  0.20,   7.9
2324,190706.400,  35.667611738, 139.791038397,   39.4571,  1, 32,  0.0025,  0.0028,  0.0071,  0.0011, -0.0020, -0.0019,  0.40,   4.1
2324,190706.600,  35.667616812, 139.791033691,   39.4354,  1, 32,  0.0025,  0.0028,  0.0072,  0.0011, -0.0020, -0.0019,  0.60,  14.8
2324,190706.800,  35.667622083, 139.791028604,   39.4387,  1, 31,  0.0027,  0.0031,  0.0081,  0.0015, -0.0030, -0.0027,  0.80,   9.5
2324,190707.000,  35.667627662, 139.791023236,   39.4568,  1, 31,  0.0026,  0.0029,  0.0075,  0.0012, -0.0024, -0.0022,  0.00,   8.7
2324,190707.200,  35.667633501, 139.791017733,   39.4600,  1, 31,  0.0026,  0.0029,  0.0075,  0.0012, -0.0024, -0.0022,  0.20,  12.2
2324,190707.400,  35.667639446, 139.791011874,   39.4598,  1, 31,  0.0026,  0.0029,  0.0075,  0.0012, -0.0024, -0.0022,  0.40,  12.2
2324,190707.600,  35.667645659, 139.791005897,   39.4559,  1, 31,  0.0026,  0.0029,  0.0075,  0.0012, -0.0025, -0.0022,  0.60,  10.2
2324,190707.800,  35.667652090, 139.790999735,   39.4413,  1, 30,  0.0026,  0.0029,  0.0076,  0.0013, -0.0025, -0.0023,  0.80,  18.4
2324,190708.000,  35.667658534, 139.790993217,   39.4510,  1, 30,  0.0026,  0.0029,  0.0075,  0.0012, -0.0024, -0.0022,  0.00,   8.5
2324,190708.200,  35.667664966, 139.790986833,   39.4402,  1, 31,  0.0025,  0.0030,  0.0072,  0.0011, -0.0024, -0.0019,  0.20,  19.0
2324,190708.400,  35.667671168, 139.790980260,   39.4373,  1, 30,  0.0025,  0.0030,  0.0072,  0.0011, -0.0024, -0.0019,  0.40,   9.9
2324,190708.600,  35.667677170, 139.790973751,   39.4486,  1, 27,  0.0027,  0.0032,  0.0081,  0.0013, -0.0028, -0.0027,  0.60,   7.5
2324,190708.800,  35.667681914, 139.790962827,   40.4589,  2, 25,  0.2596,  0.2991,  0.7206,  0.1108, -0.2137, -0.2246,  0.80,   2.1
2324,190709.000,  35.667689141, 139.790960523,   39.4486,  1, 28,  0.0028,  0.0031,  0.0079,  0.0015, -0.0027, -0.0028,  0.00,   4.0
2324,190709.200,  35.667695054, 139.790953884,   39.4585,  1, 29,  0.0027,  0.0031,  0.0076,  0.0015, -0.0027, -0.0025,  0.20,   9.1
2324,190709.400,  35.667700736, 139.790947309,   39.4365,  1, 29,  0.0027,  0.0031,  0.0076,  0.0015, -0.0027, -0.0025,  0.40,   7.8
2324,190709.600,  35.667705967, 139.790937544,   40.0404,  2, 28,  0.2594,  0.3260,  0.7325,  0.1619, -0.2984, -0.2327,  0.60,   2.4
2324,190709.800,  35.667711225, 139.790930937,   40.0538,  2, 28,  0.2594,  0.3260,  0.7325,  0.1619, -0.2984, -0.2327,  0.80,   2.6
2324,190710.000,  35.667716295, 139.790925203,   40.0005,  2, 28,  0.2734,  0.3516,  0.7994,  0.1939, -0.3621, -0.2860,  0.00,   2.3
2324,190710.200,  35.667721262, 139.790918585,   40.0331,  2, 28,  0.2734,  0.3516,  0.7994,  0.1939, -0.3621, -0.2860,  0.20,   1.9
2324,190710.400,  35.667726105, 139.790912805,   39.9803,  2, 28,  0.2617,  0.3244,  0.7380,  0.1638, -0.2993, -0.2397,  0.40,   1.1
2324,190710.600,  35.667730989, 139.790907544,   39.9372,  2, 28,  0.2734,  0.3515,  0.7994,  0.1938, -0.3621, -0.2860,  0.60,   2.0
2324,190710.800,  35.667735746, 139.790904263,   39.4130,  1, 29,  0.0030,  0.0040,  0.0089,  0.0024, -0.0043, -0.0036,  0.80,   3.3
2324,190711.000,  35.667739868, 139.790899401,   39.4138,  1, 29,  0.0030,  0.0038,  0.0083,  0.0023, -0.0038, -0.0034,  0.00,   7.2
2324,190711.200,  35.667743723, 139.790894792,   39.4241,  1, 30,  0.0030,  0.0038,  0.0083,  0.0023, -0.0038, -0.0034,  0.20,  20.0
2324,190711.400,  35.667747308, 139.790890483,   39.4294,  1, 29,  0.0030,  0.0038,  0.0083,  0.0023, -0.0039, -0.0034,  0.40,  16.8
2324,190711.600,  35.667750632, 139.790886439,   39.4214,  1, 30,  0.0030,  0.0038,  0.0084,  0.0023, -0.0039, -0.0035,  0.60,  19.9
2324,190711.800,  35.667753570, 139.790882811,   39.4213,  1, 30,  0.0030,  0.0038,  0.0084,  0.0023, -0.0039, -0.0035,  0.80,   8.3
2324,190712.000,  35.667756256, 139.790879754,   39.4292,  1, 30,  0.0030,  0.0038,  0.0083,  0.0023, -0.0038, -0.0034,  0.00,  12.9
2324,190712.200,  35.667758571, 139.790876948,   39.4241,  1, 30,  0.0030,  0.0038,  0.0083,  0.0023, -0.0038, -0.0034,  0.20,  12.3
2324,190712.400,  35.667760678, 139.790874486,   39.4310,  1, 30,  0.0030,  0.0038,  0.0083,  0.0023, -0.0039, -0.0034,  0.40,  18.0
2324,190712.600,  35.667762500, 139.790872253,   39.4338,  1, 30,  0.0030,  0.0038,  0.0084,  0.0023, -0.0039, -0.0035,  0.60,  19.2
2324,190712.800,  35.667764370, 139.790870123,   39.4245,  1, 30,  0.0030,  0.0038,  0.0084,  0.0023, -0.0039, -0.0035,  0.80,  15.5
2324,190713.000,  35.667766305, 139.790867812,   39.4277,  1, 30,  0.0030,  0.0038,  0.0083,  0.0023, -0.0038, -0.0034,  0.00,  15.4
2324,190713.200,  35.667767723, 139.790866045,   39.4283,  1, 30,  0.0030,  0.0038,  0.0083,  0.0023, -0.0038, -0.0034,  0.20,  14.0
2324,190713.400,  35.667769155, 139.790864510,   39.4349,  1, 30,  0.0030,  0.0038,  0.0083,  0.0023, -0.0039, -0.0034,  0.40,  14.9
2324,190713.600,  35.667771131, 139.790862125,   39.4342,  1, 30,  0.0030,  0.0038,  0.0084,  0.0023, -0.0039, -0.0035,  0.60,  18.5
2324,190713.800,  35.667772959, 139.790860005,   39.4368,  1, 30,  0.0030,  0.0038,  0.0084,  0.0023, -0.0039, -0.0035,  0.80,  18.8
2324,190714.000,  35.667774657, 139.790857919,   39.4607,  1, 30,  0.0030,  0.0038,  0.0083,  0.0023, -0.0038, -0.0034,  0.00,  19.1
2324,190714.200,  35.667776475, 139.790855744,   39.4577,  1, 30,  0.0030,  0.0038,  0.0083,  0.0023, -0.0038, -0.0034,  0.20,  22.1
2324,190714.400,  35.667778275, 139.790853716,   39.4573,  1, 30,  0.0030,  0.0038,  0.0083,  0.0023, -0.0039, -0.0034,  0.40,  16.2
2324,190714.600,  35.667780080, 139.790851572,   39.4406,  1, 30,  0.0030,  0.0038,  0.0084,  0.0023, -0.0039, -0.0035,  0.60,  24.9
2324,190714.800,  35.667781910, 139.790849379,   39.4437,  1, 30,  0.0030,  0.0038,  0.0084,  0.0023, -0.0039, -0.0035,  0.80,  14.8
2324,190715.000,  35.667783746, 139.790847108,   39.4524,  1, 31,  0.0028,  0.0031,  0.0077,  0.0018, -0.0029, -0.0030,  0.00,  10.4
2324,190715.200,  35.667785637, 139.790845036,   39.5263,  1, 31,  0.0028,  0.0031,  0.0077,  0.0018, -0.0029, -0.0030,  0.20,  22.8
2324,190715.400,  35.667787119, 139.790843211,   39.5144,  1, 31,  0.0028,  0.0032,  0.0077,  0.0018, -0.0029, -0.0030,  0.40,  16.6
2324,190715.600,  35.667788705, 139.790841455,   39.4325,  1, 31,  0.0028,  0.0032,  0.0078,  0.0018, -0.0029, -0.0030,  0.60,  19.8
2324,190715.800,  35.667790661, 139.790839324,   39.4626,  1, 31,  0.0029,  0.0032,  0.0078,  0.0018, -0.0029, -0.0030,  0.80,  16.3
2324,190716.000,  35.667792398, 139.790837183,   39.4628,  1, 31,  0.0028,  0.0031,  0.0077,  0.0018, -0.0029, -0.0030,  0.00,  14.8
2324,190716.200,  35.667794206, 139.790835118,   39.4708,  1, 30,  0.0030,  0.0038,  0.0083,  0.0023, -0.0038, -0.0034,  0.20,  20.0
2324,190716.400,  35.667796008, 139.790833045,   39.4821,  1, 31,  0.0029,  0.0034,  0.0080,  0.0020, -0.0033, -0.0032,  0.40,  17.2
2324,190716.600,  35.667797876, 139.790830949,   39.4810,  1, 31,  0.0029,  0.0034,  0.0080,  0.0020, -0.0033, -0.0032,  0.60,  14.3
2324,190716.800,  35.667799886, 139.790828592,   39.4902,  1, 31,  0.0029,  0.0035,  0.0080,  0.0020, -0.0033, -0.0032,  0.80,  11.7
2324,190717.000,  35.667802255, 139.790826093,   39.4914,  1, 31,  0.0029,  0.0034,  0.0080,  0.0020, -0.0033, -0.0032,  0.00,  17.9
2324,190717.200,  35.667804856, 139.790823348,   39.4965,  1, 31,  0.0028,  0.0031,  0.0077,  0.0018, -0.0029, -0.0030,  0.20,  14.5
2324,190717.400,  35.667807820, 139.790820524,   39.5067,  1, 31,  0.0028,  0.0032,  0.0077,  0.0018, -0.0029, -0.0030,  0.40,  16.5
2324,190717.600,  35.667811136, 139.790817537,   39.5149,  1, 31,  0.0028,  0.0032,  0.0078,  0.0018, -0.0029, -0.0030,  0.60,  14.8
2324,190717.800,  35.667814769, 139.790814400,   39.5242,  1, 31,  0.0029,  0.0032,  0.0078,  0.0018, -0.0029, -0.0030,  0.80,  12.5
2324,190718.000,  35.667818732, 139.790811138,   39.5360,  1, 31,  0.0028,  0.0031,  0.0077,  0.0018, -0.0029, -0.0030,  0.00,  17.2
2324,190718.200,  35.667823019, 139.790807878,   39.5450,  1, 31,  0.0028,  0.0031,  0.0077,  0.0018, -0.0029, -0.0030,  0.20,  16.3
2324,190718.400,  35.667827721, 139.790804583,   39.5624,  1, 31,  0.0028,  0.0032,  0.0077,  0.0018, -0.0029, -0.0030,  0.40,  20.0
2324,190718.600,  35.667832835, 139.790801310,   39.5798,  1, 31,  0.0028,  0.0032,  0.0078,  0.0018, -0.0029, -0.0030,  0.60,  14.8
2324,190718.800,  35.667838445, 139.790797958,   39.5949,  1, 31,  0.0029,  0.0032,  0.0078,  0.0018, -0.0029, -0.0030,  0.80,   4.3
2324,190719.000,  35.667844036, 139.790793982,   39.7911,  2, 31,  0.2671,  0.3054,  0.7161,  0.1726, -0.2702, -0.2673,  0.00,   2.4
2324,190719.200,  35.667850766, 139.790790914,   39.8033,  2, 31,  0.2671,  0.3054,  0.7161,  0.1725, -0.2702, -0.2673,  0.20,   1.5
2324,190719.400,  35.667857826, 139.790788159,   39.8419,  2, 31,  0.2671,  0.3054,  0.7161,  0.1725, -0.2702, -0.2673,  0.40,   2.5
2324,190719.600,  35.667865320, 139.790785236,   39.8055,  2, 31,  0.2671,  0.3054,  0.7161,  0.1725, -0.2701, -0.2673,  0.60,   1.7
2324,190719.800,  35.667872666, 139.790781951,   39.9168,  2, 30,  0.2579,  0.3100,  0.6849,  0.1623, -0.2532, -0.2384,  0.80,   1.4
2324,190720.000,  35.667881710, 139.790781079,   39.6398,  1, 30,  0.0028,  0.0035,  0.0075,  0.0019, -0.0031, -0.0028,  0.00,  16.2
2324,190720.200,  35.667890042, 139.790779052,   39.6448,  1, 30,  0.0028,  0.0035,  0.0075,  0.0019, -0.0031, -0.0028,  0.20,  12.7
2324,190720.400,  35.667898466, 139.790776721,   39.6395,  1, 30,  0.0028,  0.0035,  0.0075,  0.0019, -0.0031, -0.0028,  0.40,  15.4
2324,190720.600,  35.667907074, 139.790774614,   39.6230,  1, 31,  0.0026,  0.0033,  0.0070,  0.0016, -0.0025, -0.0024,  0.60,  11.2
2324,190720.800,  35.667915902, 139.790772750,   39.6345,  1, 31,  0.0027,  0.0033,  0.0071,  0.0016, -0.0025, -0.0024,  0.80,  11.6
2324,190721.000,  35.667924795, 139.790770944,   39.6309,  1, 32,  0.0026,  0.0029,  0.0068,  0.0013, -0.0019, -0.0022,  0.00,  16.4
2324,190721.200,  35.667933948, 139.790769018,   39.6292,  1, 32,  0.0026,  0.0029,  0.0068,  0.0013, -0.0019, -0.0022,  0.20,  11.6
2324,190721.400,  35.667943274, 139.790767297,   39.6296,  1, 32,  0.0026,  0.0029,  0.0068,  0.0013, -0.0019, -0.0022,  0.40,  10.3
2324,190721.600,  35.667952698, 139.790765439,   39.6380,  1, 32,  0.0026,  0.0029,  0.0068,  0.0014, -0.0019, -0.0022,  0.60,   4.2
2324,190721.800,  35.667962276, 139.790763479,   39.6416,  1, 32,  0.0026,  0.0029,  0.0068,  0.0014, -0.0019, -0.0022,  0.80,   7.2
2324,190722.000,  35.667972041, 139.790761544,   39.6403,  1, 32,  0.0026,  0.0029,  0.0068,  0.0013, -0.0019, -0.0022,  0.00,   5.4
2324,190722.200,  35.667981611, 139.790758494,   39.8684,  2, 32,  0.2464,  0.2795,  0.6387,  0.1306, -0.1820, -0.1952,  0.20,   1.9
2324,190722.400,  35.667990364, 139.790756529,   39.9192,  2, 31,  0.2552,  0.2905,  0.6718,  0.1494, -0.2227, -0.2278,  0.40,   2.0
2324,190722.600,  35.667999039, 139.790755676,   39.6838,  1, 31,  0.0027,  0.0030,  0.0072,  0.0016, -0.0023, -0.0025,  0.60,   5.6
2324,190722.800,  35.668005268, 139.790750886,   40.3586,  2, 32,  0.2424,  0.2699,  0.6238,  0.1173, -0.1512, -0.1789,  0.80,   2.1
2324,190723.000,  35.668013533, 139.790751367,   39.7260,  1, 32,  0.0026,  0.0029,  0.0069,  0.0014, -0.0019, -0.0023,  0.00,   3.0
2324,190723.200,  35.668018884, 139.790745934,   40.1532,  2, 29,  0.2582,  0.2936,  0.6979,  0.1307, -0.1281, -0.2319,  0.20,   2.9
2324,190723.400,  35.668024431, 139.790744035,   40.3464,  2, 28,  0.2598,  0.3027,  0.7327,  0.1226, -0.0990, -0.2336,  0.40,   1.7
2324,190723.600,  35.668029135, 139.790741952,   40.3041,  2, 29,  0.2676,  0.3003,  0.7381,  0.1381, -0.1809, -0.2751,  0.60,   1.9
2324,190723.800,  35.668033305, 139.790740483,   40.3375,  2, 28,  0.2681,  0.3094,  0.7525,  0.1423, -0.1476, -0.2708,  0.80,   1.2
2324,190724.000,  35.668038136, 139.790740741,   39.6726,  2, 29,  0.2799,  0.3128,  0.7844,  0.1622, -0.2367, -0.3122,  0.00,   2.9
2324,190724.200,  35.668040292, 139.790740090,   39.7068,  1, 29,  0.0030,  0.0032,  0.0086,  0.0017, -0.0025, -0.0036,  0.20,   3.1
2324,190724.400,  35.668043070, 139.790739260,   39.8020,  2, 30,  0.2642,  0.2964,  0.7590,  0.1412, -0.2051, -0.2759,  0.40,   2.1
2324,190724.600,  35.668045053, 139.790738229,   39.8017,  2, 30,  0.2702,  0.2921,  0.7611,  0.1313, -0.2125, -0.2933,  0.60,   1.9
2324,190724.800,  35.668046350, 139.790737399,   39.7666,  2, 29,  0.2705,  0.2982,  0.7719,  0.1343, -0.1935, -0.2903,  0.80,   1.4
2324,190725.000,  35.668047229, 139.790737927,   39.8573,  2, 29,  0.2644,  0.3000,  0.7823,  0.1398, -0.2254, -0.2730,  0.00,   1.1
2324,190725.200,  35.668047942, 139.790737474,   39.8599,  2, 28,  0.2707,  0.3018,  0.7947,  0.1328, -0.2150, -0.2876,  0.20,   1.1
2324,190725.400,  35.668047896, 139.790737544,   39.9178,  2, 28,  0.2707,  0.3018,  0.7948,  0.1328, -0.2150, -0.2876,  0.40,   1.0
2324,190725.600,  35.668047644, 139.790737554,   39.9656,  2, 28,  0.2707,  0.3018,  0.7948,  0.1328, -0.2150, -0.2876,  0.60,   1.1
2324,190725.800,  35.668047773, 139.790737437,   39.9795,  2, 28,  0.2707,  0.3018,  0.7948,  0.1328, -0.2150, -0.2875,  0.80,   1.1
2324,190726.000,  35.668047472, 139.790737174,   39.9090,  2, 28,  0.2707,  0.3018,  0.7948,  0.1328, -0.2149, -0.2875,  0.00,   1.1
2324,190726.200,  35.668047432, 139.790737274,   39.9512,  2, 28,  0.2707,  0.3018,  0.7948,  0.1328, -0.2149, -0.2875,  0.20,   1.1
2324,190726.400,  35.668047504, 139.790737522,   39.9960,  2, 28,  0.2707,  0.3018,  0.7948,  0.1328, -0.2149, -0.2875,  0.40,   1.1
2324,190726.600,  35.668047394, 139.790737733,   40.0208,  2, 28,  0.2707,  0.3018,  0.7948,  0.1328, -0.2149, -0.2875,  0.60,   1.1
2324,190726.800,  35.668047443, 139.790737631,   40.0204,  2, 28,  0.2707,  0.3018,  0.7948,  0.1328, -0.2149, -0.2875,  0.80,   1.1
2324,190727.000,  35.668046920, 139.790737178,   40.1276,  2, 28,  0.2709,  0.3097,  0.8115,  0.1360, -0.1866, -0.2840,  0.00,   1.2
2324,190727.200,  35.668047377, 139.790737596,   39.9264,  2, 28,  0.2709,  0.3097,  0.8115,  0.1359, -0.1866, -0.2840,  0.20,   1.2
2324,190727.400,  35.668047322, 139.790737813,   40.0373,  2, 28,  0.2709,  0.3097,  0.8115,  0.1359, -0.1866, -0.2840,  0.40,   1.2
2324,190727.600,  35.668047353, 139.790737340,   40.3323,  2, 28,  0.2710,  0.3127,  0.8440,  0.1348, -0.2119, -0.2810,  0.60,   1.2
2324,190727.800,  35.668047294, 139.790737636,   40.3178,  2, 28,  0.2710,  0.3127,  0.8440,  0.1348, -0.2119, -0.2810,  0.80,   1.2
2324,190728.000,  35.668047337, 139.790737582,   40.4551,  2, 28,  0.2710,  0.3127,  0.8440,  0.1347, -0.2119, -0.2810,  0.00,   1.2
2324,190728.200,  35.668047320, 139.790737398,   40.4249,  2, 28,  0.2710,  0.3127,  0.8440,  0.1347, -0.2119, -0.2810,  0.20,   1.2
2324,190728.400,  35.668047168, 139.790737452,   40.5014,  2, 28,  0.2710,  0.3127,  0.8440,  0.1347, -0.2119, -0.2810,  0.40,   1.2
2324,190728.600,  35.668047056, 139.790737229,   40.5321,  2, 28,  0.2710,  0.3127,  0.8440,  0.1347, -0.2119, -0.2810,  0.60,   1.2
2324,190728.800,  35.668046925, 139.790737260,   40.6082,  2, 28,  0.2710,  0.3127,  0.8440,  0.1347, -0.2118, -0.2810,  0.80,   1.2
2324,190729.000,  35.668046922, 139.790737733,   40.7577,  2, 28,  0.2710,  0.3127,  0.8440,  0.1347, -0.2118, -0.2810,  0.00,   1.2
2324,190729.200,  35.668046786, 139.790737670,   40.8137,  2, 28,  0.2710,  0.3127,  0.8440,  0.1347, -0.2118, -0.2810,  0.20,   1.2
2324,190729.400,  35.668046775, 139.790737419,   40.7879,  2, 28,  0.2710,  0.3127,  0.8440,  0.1347, -0.2118, -0.2810,  0.40,   1.2
2324,190729.600,  35.668046935, 139.790737279,   40.7748,  2, 28,  0.2710,  0.3127,  0.8440,  0.1347, -0.2118, -0.2810,  0.60,   1.3
2324,190729.800,  35.668046986, 139.790737395,   40.8009,  2, 28,  0.2710,  0.3127,  0.8440,  0.1347, -0.2118, -0.2810,  0.80,   1.3
2324,190730.000,  35.668047273, 139.790736981,   40.5528,  2, 28,  0.2710,  0.3127,  0.8440,  0.1347, -0.2118, -0.2810,  0.00,   1.3
2324,190730.200,  35.668047131, 139.790736834,   40.6024,  2, 28,  0.2710,  0.3127,  0.8440,  0.1347, -0.2117, -0.2810,  0.20,   1.3
2324,190730.400,  35.668046996, 139.790737021,   40.6983,  2, 28,  0.2710,  0.3127,  0.8440,  0.1347, -0.2117, -0.2810,  0.40,   1.2
2324,190730.600,  35.668046869, 139.790736907,   40.7543,  2, 28,  0.2710,  0.3127,  0.8440,  0.1347, -0.2117, -0.2810,  0.60,   1.2
2324,190730.800,  35.668047004, 139.790736840,   40.7235,  2, 28,  0.2710,  0.3127,  0.8440,  0.1346, -0.2117, -0.2810,  0.80,   1.3
2324,190731.000,  35.668047504, 139.790737210,   41.0873,  2, 28,  0.2710,  0.3127,  0.8440,  0.1346, -0.2117, -0.2810,  0.00,   1.2
2324,190731.200,  35.668047485, 139.790737023,   41.0691,  2, 28,  0.2710,  0.3127,  0.8440,  0.1346, -0.2117, -0.2810,  0.20,   1.2
2324,190731.400,  35.668047485, 139.790736849,   41.0325,  2, 28,  0.2710,  0.3127,  0.8440,  0.1346, -0.2117, -0.2810,  0.40,   1.2
2324,190731.600,  35.668047590, 139.790736726,   40.9802,  2, 28,  0.2710,  0.3127,  0.8440,  0.1346, -0.2116, -0.2810,  0.60,   1.2
2324,190731.800,  35.668047862, 139.790736320,   41.0379,  2, 28,  0.2710,  0.3127,  0.8440,  0.1346, -0.2116, -0.2810,  0.80,   1.0
2324,190732.000,  35.668047314, 139.790736519,   41.0506,  2, 28,  0.2710,  0.3127,  0.8440,  0.1346, -0.2116, -0.2810,  0.00,   1.0
2324,190732.200,  35.668048025, 139.790736797,   41.0180,  2, 28,  0.2710,  0.3127,  0.8440,  0.1346, -0.2116, -0.2810,  0.20,   1.0
2324,190732.400,  35.668049181, 139.790737136,   40.9158,  2, 28,  0.2710,  0.3127,  0.8440,  0.1346, -0.2116, -0.2810,  0.40,   1.1
2324,190732.600,  35.668049885, 139.790736629,   40.9956,  2, 28,  0.2710,  0.3127,  0.8440,  0.1346, -0.2116, -0.2810,  0.60,   1.0
2324,190732.800,  35.668050911, 139.790736245,   41.0117,  2, 28,  0.2710,  0.3127,  0.8440,  0.1346, -0.2116, -0.2810,  0.80,   1.9
2324,190733.000,  35.668053287, 139.790734571,   39.6855,  1, 27,  0.0031,  0.0035,  0.0097,  0.0017, -0.0018, -0.0038,  0.00,   3.4
2324,190733.200,  35.668053707, 139.790734475,   40.6876,  2, 26,  0.2898,  0.3400,  0.9034,  0.1633, -0.2143, -0.3246,  0.20,   1.9
2324,190733.400,  35.668056364, 139.790733576,   39.6563,  1, 26,  0.0032,  0.0035,  0.0099,  0.0017, -0.0025, -0.0039,  0.40,   9.9
2324,190733.600,  35.668057198, 139.790732894,   40.6682,  2, 26,  0.2878,  0.3377,  0.8690,  0.1720, -0.2414, -0.3073,  0.60,   2.9
2324,190733.800,  35.668058587, 139.790732519,   40.6789,  2, 26,  0.2878,  0.3377,  0.8690,  0.1720, -0.2414, -0.3073,  0.80,   2.6
2324,190734.000,  35.668060822, 139.790732397,   39.6753,  1, 26,  0.0033,  0.0034,  0.0106,  0.0017, -0.0025, -0.0043,  0.00,   4.9
2324,190734.200,  35.668063238, 139.790731252,   40.5401,  2, 27,  0.2982,  0.3385,  0.8818,  0.1593, -0.2319, -0.3310,  0.20,   2.9
2324,190734.400,  35.668063848, 139.790731751,   39.6599,  1, 26,  0.0032,  0.0035,  0.0099,  0.0017, -0.0025, -0.0039,  0.40,   5.8
2324,190734.600,  35.668065639, 139.790731419,   39.6422,  1, 25,  0.0033,  0.0036,  0.0107,  0.0015, -0.0017, -0.0043,  0.60,   9.0
2324,190734.800,  35.668067573, 139.790731128,   39.6470,  1, 26,  0.0033,  0.0036,  0.0108,  0.0015, -0.0017, -0.0043,  0.80,   8.6
2324,190735.000,  35.668069631, 139.790730757,   39.6392,  1, 27,  0.0033,  0.0035,  0.0102,  0.0015, -0.0012, -0.0042,  0.00,   7.5
2324,190735.200,  35.668071887, 139.790730450,   39.6215,  1, 27,  0.0033,  0.0035,  0.0102,  0.0015, -0.0012, -0.0042,  0.20,  11.1
2324,190735.400,  35.668074444, 139.790730115,   39.6113,  1, 26,  0.0033,  0.0035,  0.0102,  0.0015, -0.0012, -0.0042,  0.40,   5.1
2324,190735.600,  35.668077292, 139.790729766,   39.6164,  1, 25,  0.0033,  0.0036,  0.0107,  0.0015, -0.0017, -0.0043,  0.60,  11.1
2324,190735.800,  35.668080608, 139.790729298,   39.6042,  1, 25,  0.0033,  0.0036,  0.0108,  0.0015, -0.0017, -0.0043,  0.80,  16.2
2324,190736.000,  35.668084159, 139.790728775,   39.6098,  1, 25,  0.0033,  0.0036,  0.0106,  0.0015, -0.0017, -0.0042,  0.00,   9.4
2324,190736.200,  35.668088085, 139.790728302,   39.6110,  1, 26,  0.0033,  0.0036,  0.0107,  0.0015, -0.0017, -0.0042,  0.20,   4.6
2324,190736.400,  35.668092325, 139.790727748,   39.5963,  1, 27,  0.0031,  0.0035,  0.0096,  0.0016, -0.0022, -0.0036,  0.40,   3.7
2324,190736.600,  35.668096936, 139.790727226,   39.5650,  1, 28,  0.0031,  0.0035,  0.0092,  0.0016, -0.0018, -0.0036,  0.60,   4.9
2324,190736.800,  35.668102898, 139.790726113,   39.4832,  2, 27,  0.2874,  0.3425,  0.8322,  0.1609, -0.1741, -0.3020,  0.80,   2.7
2324,190737.000,  35.668107362, 139.790726075,   39.5307,  1, 26,  0.0032,  0.0041,  0.0101,  0.0022, -0.0035, -0.0041,  0.00,   4.1
2324,190737.200,  35.668113332, 139.790725224,   39.5276,  1, 26,  0.0032,  0.0041,  0.0101,  0.0022, -0.0035, -0.0041,  0.20,   3.8
2324,190737.400,  35.668120906, 139.790725038,   39.5909,  2, 26,  0.2987,  0.3999,  0.9004,  0.2066, -0.3181, -0.3451,  0.40,   2.5
2324,190737.600,  35.668127936, 139.790724277,   39.5918,  2, 26,  0.2987,  0.3999,  0.9004,  0.2066, -0.3181, -0.3451,  0.60,   1.2
2324,190737.800,  35.668135124, 139.790724124,   39.6045,  2, 26,  0.2987,  0.4035,  0.9023,  0.2068, -0.3132, -0.3450,  0.80,   1.6
2324,190738.000,  35.668141899, 139.790722585,   39.6907,  2, 24,  0.3181,  0.4155,  0.9806,  0.1894, -0.2818, -0.4004,  0.00,   1.1
2324,190738.200,  35.668149109, 139.790722534,   39.7721,  2, 25,  0.3181,  0.4032,  0.9538,  0.1889, -0.3196, -0.4008,  0.20,   2.8
2324,190738.400,  35.668156478, 139.790721440,   39.7173,  2, 25,  0.3181,  0.4032,  0.9538,  0.1889, -0.3196, -0.4008,  0.40,   1.2
2324,190738.600,  35.668163913, 139.790717943,   39.4507,  1, 24,  0.0036,  0.0043,  0.0114,  0.0020, -0.0032, -0.0049,  0.60,   9.4
2324,190738.800,  35.668171864, 139.790718621,   39.7790,  2, 24,  0.3181,  0.4155,  0.9807,  0.1893, -0.2817, -0.4004,  0.80,   2.3
2324,190739.000,  35.668179569, 139.790717256,   39.4037,  2, 25,  0.3141,  0.3949,  0.9243,  0.1956, -0.2469, -0.3866,  0.00,   1.9
2324,190739.200,  35.668187549, 139.790716646,   39.4049,  2, 23,  0.3254,  0.4057,  0.9681,  0.1832, -0.2225, -0.4164,  0.20,   1.4
2324,190739.400,  35.668196139, 139.790714535,   39.4784,  1, 22,  0.0036,  0.0044,  0.0123,  0.0022, -0.0040, -0.0051,  0.40,   4.7
2324,190739.600,  35.668204088, 139.790714832,   39.6396,  2, 22,  0.3438,  0.4296,  1.1468,  0.1989, -0.3526, -0.4773,  0.60,   2.3
2324,190739.800,  35.668212543, 139.790714272,   39.6779,  2, 22,  0.3438,  0.4295,  1.1468,  0.1989, -0.3526, -0.4773,  0.80,   2.2
2324,190740.000,  35.668222349, 139.790712518,   39.8001,  2, 21,  0.3459,  0.4444,  1.1473,  0.2096, -0.3471, -0.4760,  0.00,   2.7
2324,190740.200,  35.668230884, 139.790712652,   39.9283,  2, 21,  0.3459,  0.4444,  1.1473,  0.2095, -0.3471, -0.4760,  0.20,   2.1
2324,190740.400,  35.668239296, 139.790712120,   39.9723,  2, 21,  0.3459,  0.4444,  1.1473,  0.2095, -0.3471, -0.4760,  0.40,   1.0
2324,190740.600,  35.668248493, 139.790709544,   39.4791,  2, 21,  0.3936,  0.4789,  1.3576,  0.2018, -0.2771, -0.5989,  0.60,   2.6
2324,190740.800,  35.668257141, 139.790708471,   39.4296,  2, 21,  0.3936,  0.4789,  1.3576,  0.2018, -0.2770, -0.5989,  0.80,   2.4
2324,190741.000,  35.668263809, 139.790710051,   39.7498,  2, 20,  0.3494,  0.5074,  1.2065,  0.2356, -0.4286, -0.4850,  0.00,   1.1
2324,190741.200,  35.668273836, 139.790708175,   39.0947,  2, 21,  0.3936,  0.4789,  1.3576,  0.2018, -0.2769, -0.5989,  0.20,   1.6
2324,190741.400,  35.668276600, 139.790701730,   41.4915,  2, 21,  0.3136,  0.4409,  1.0024,  0.1549, -0.1350, -0.3756,  0.40,   1.9
2324,190741.600,  35.668281978, 139.790693196,   43.1579,  2, 19,  0.3008,  0.4657,  0.9172, -0.0598,  0.1060, -0.2871,  0.60,   1.8
2324,190741.800,  35.668292460, 139.790690021,   42.7991,  2, 19,  0.3089,  0.4943,  0.9227, -0.1233, -0.0727, -0.2746,  0.80,   1.9
2324,190742.000,  35.668300845, 139.790689368,   42.3709,  2, 19,  0.3089,  0.4943,  0.9227, -0.1233, -0.0727, -0.2746,  0.00,   2.6
2324,190742.200,  35.668309424, 139.790688580,   41.9379,  2, 19,  0.3122,  0.5042,  0.9233, -0.1405, -0.0919, -0.2720,  0.20,   1.2
2324,190742.400,  35.668319351, 139.790692127,   40.5877,  2, 18,  0.3253,  0.5432,  1.0563, -0.0364, -0.3348, -0.3474,  0.40,   1.9
2324,190742.600,  35.668327490, 139.790690698,   40.3309,  2, 18,  0.3253,  0.5432,  1.0563, -0.0364, -0.3348, -0.3474,  0.60,   2.0
2324,190742.800,  35.668335335, 139.790687974,   40.1440,  2, 18,  0.3117,  0.5319,  1.0572, -0.1278, -0.1670, -0.3049,  0.80,   1.3
2324,190743.000,  35.668344102, 139.790684517,   39.9428,  2, 17,  0.3270,  0.5741,  1.0774,  0.0707, -0.2695, -0.3369,  0.00,   2.2
2324,190743.200,  35.668351711, 139.790684851,   39.4368,  1, 18,  0.0032,  0.0052,  0.0113, -0.0014, -0.0032, -0.0030,  0.20,   7.8
2324,190743.400,  35.668358942, 139.790677216,   40.4955,  2, 18,  0.3137,  0.5043,  0.9562, -0.1394, -0.0756, -0.2580,  0.40,   2.7
2324,190743.600,  35.668366209, 139.790678840,   39.4134,  1, 18,  0.0032,  0.0052,  0.0101, -0.0015, -0.0016, -0.0026,  0.60,   3.8
2324,190743.800,  35.668373464, 139.790676075,   39.3689,  1, 17,  0.0034,  0.0057,  0.0119, -0.0003, -0.0041, -0.0035,  0.80,   5.8
2324,190744.000,  35.668380632, 139.790673300,   39.3791,  1, 16,  0.0033,  0.0052,  0.0115,  0.0013, -0.0032, -0.0036,  0.00,   4.5
2324,190744.200,  35.668386945, 139.790667643,   40.2074,  2, 16,  0.3488,  0.5300,  1.1956, -0.0708,  0.0880, -0.4307,  0.20,   2.9
2324,190744.400,  35.668394988, 139.790668894,   39.3037,  1, 16,  0.0036,  0.0054,  0.0128, -0.0006, -0.0015, -0.0046,  0.40,   3.8
2324,190744.600,  35.668401961, 139.790667531,   39.2284,  1, 17,  0.0037,  0.0054,  0.0130,  0.0024, -0.0044, -0.0050,  0.60,   6.2
2324,190744.800,  35.668408803, 139.790666310,   39.2571,  1, 17,  0.0034,  0.0049,  0.0111,  0.0014, -0.0020, -0.0038,  0.80,   3.9
2324,190745.000,  35.668412362, 139.790662577,   40.9582,  2, 17,  0.3129,  0.4767,  1.0121,  0.1450, -0.1682, -0.3263,  0.00,   1.1
2324,190745.200,  35.668419900, 139.790664657,   41.0453,  2, 18,  0.3090,  0.4345,  1.0036,  0.1068, -0.2310, -0.3360,  0.20,   0.0
2324,190745.400,  35.668426908, 139.790664137,   40.8617,  2, 18,  0.3090,  0.4345,  1.0037,  0.1068, -0.2310, -0.3360,  0.40,   1.0
2324,190745.600,  35.668432869, 139.790665587,   41.1220,  2, 16,  0.3175,  0.4869,  0.9543,  0.1463, -0.2026, -0.2980,  0.60,   1.1
2324,190745.800,  35.668440149, 139.790665034,   40.6034,  2, 16,  0.3480,  0.5754,  1.0748,  0.2507, -0.3836, -0.3892,  0.80,   1.9
2324,190746.000,  35.668447201, 139.790666048,   40.4986,  2, 16,  0.3480,  0.5754,  1.0748,  0.2507, -0.3836, -0.3891,  0.00,   1.3
2324,190746.200,  35.668453497, 139.790664356,   40.4670,  2, 18,  0.3044,  0.5019,  0.9119,  0.2063, -0.2386, -0.2419,  0.20,   1.5
2324,190746.400,  35.668461442, 139.790668725,   39.0301,  1, 18,  0.0036,  0.0058,  0.0116,  0.0029, -0.0048, -0.0042,  0.40,   5.6
2324,190746.600,  35.668466934, 139.790670231,   39.9867,  2, 18,  0.3293,  0.5621,  1.0177,  0.2726, -0.4137, -0.3395,  0.60,   1.5
2324,190746.800,  35.668471776, 139.790670970,   40.5251,  2, 20,  0.3004,  0.4238,  0.8379,  0.1836, -0.2042, -0.2089,  0.80,   2.2
2324,190747.000,  35.668478211, 139.790673305,   40.2248,  2, 20,  0.2967,  0.3873,  0.8122,  0.1692, -0.0798, -0.1924,  0.00,   1.6
2324,190747.200,  35.668483556, 139.790676021,   40.0280,  2, 19,  0.3024,  0.3946,  0.8301,  0.1555, -0.1390, -0.1643,  0.20,   1.2
2324,190747.400,  35.668489521, 139.790677999,   39.9887,  2, 19,  0.3054,  0.4862,  0.8920,  0.2068, -0.3341, -0.2189,  0.40,   2.6
2324,190747.600,  35.668494602, 139.790679852,   39.9925,  2, 19,  0.3054,  0.4862,  0.8920,  0.2068, -0.3341, -0.2189,  0.60,   1.6
2324,190747.800,  35.668498960, 139.790683423,   39.8587,  2, 18,  0.3067,  0.4986,  0.8996,  0.1991, -0.3528, -0.2112,  0.80,   1.2
2324,190748.000,  35.668503240, 139.790684671,   39.8741,  2, 18,  0.3066,  0.4986,  0.8996,  0.1991, -0.3528, -0.2112,  0.00,   2.0
2324,190748.200,  35.668508227, 139.790688669,   40.1105,  2, 20,  0.2953,  0.4743,  0.8936,  0.1651, -0.3727, -0.2266,  0.20,   2.0
2324,190748.400,  35.668512923, 139.790691465,   38.9349,  1, 21,  0.0034,  0.0055,  0.0114,  0.0026, -0.0055, -0.0040,  0.40,   5.3
2324,190748.600,  35.668517677, 139.790693487,   38.9124,  1, 21,  0.0034,  0.0055,  0.0115,  0.0027, -0.0055, -0.0040,  0.60,   4.7
2324,190748.800,  35.668522151, 139.790695410,   38.9097,  1, 21,  0.0034,  0.0052,  0.0111,  0.0029, -0.0058, -0.0038,  0.80,   4.4
2324,190749.000,  35.668525881, 139.790691434,   40.2567,  2, 22,  0.2894,  0.4098,  0.8393,  0.2055, -0.3492, -0.2170,  0.00,   1.5
2324,190749.200,  35.668531422, 139.790698519,   38.9194,  1, 22,  0.0033,  0.0048,  0.0103,  0.0028, -0.0050, -0.0037,  0.20,   4.4
2324,190749.400,  35.668535879, 139.790699895,   38.9334,  1, 22,  0.0033,  0.0048,  0.0103,  0.0028, -0.0050, -0.0037,  0.40,   5.1
2324,190749.600,  35.668540473, 139.790701019,   38.9262,  1, 21,  0.0031,  0.0044,  0.0094,  0.0021, -0.0042, -0.0026,  0.60,   5.7
2324,190749.800,  35.668544835, 139.790701871,   38.9441,  1, 20,  0.0032,  0.0045,  0.0100,  0.0022, -0.0043, -0.0030,  0.80,   8.0
2324,190750.000,  35.668549062, 139.790702491,   38.9720,  1, 20,  0.0032,  0.0045,  0.0100,  0.0020, -0.0043, -0.0029,  0.00,   3.1
2324,190750.200,  35.668553087, 139.790700789,   39.7535,  2, 21,  0.2979,  0.4380,  0.9240,  0.1865, -0.4123, -0.2391,  0.20,   2.1
2324,190750.400,  35.668557355, 139.790699844,   39.9810,  2, 21,  0.3012,  0.4632,  0.9613,  0.1674, -0.4582, -0.2128,  0.40,   2.7
2324,190750.600,  35.668560870, 139.790703532,   38.9121,  1, 21,  0.0035,  0.0061,  0.0135,  0.0030, -0.0074, -0.0045,  0.60,   6.6
2324,190750.800,  35.668564338, 139.790703097,   38.9205,  1, 21,  0.0035,  0.0054,  0.0122,  0.0029, -0.0062, -0.0044,  0.80,  11.0
2324,190751.000,  35.668567719, 139.790702829,   38.9052,  1, 21,  0.0035,  0.0053,  0.0120,  0.0029, -0.0061, -0.0043,  0.00,  12.0
2324,190751.200,  35.668570720, 139.790702071,   38.9121,  1, 21,  0.0032,  0.0045,  0.0100,  0.0021, -0.0043, -0.0030,  0.20,   7.2
2324,190751.400,  35.668573740, 139.790701326,   38.8930,  1, 21,  0.0032,  0.0045,  0.0100,  0.0021, -0.0043, -0.0030,  0.40,   3.2
2324,190751.600,  35.668576613, 139.790700538,   38.8667,  1, 21,  0.0035,  0.0049,  0.0116,  0.0028, -0.0055, -0.0041,  0.60,   3.9
2324,190751.800,  35.668579390, 139.790699538,   38.8298,  1, 21,  0.0035,  0.0050,  0.0116,  0.0028, -0.0055, -0.0041,  0.80,   3.8
2324,190752.000,  35.668582836, 139.790697103,   39.0653,  2, 22,  0.3040,  0.3515,  0.8943,  0.1689, -0.3085, -0.2512,  0.00,   1.2
2324,190752.200,  35.668584574, 139.790697244,   38.8043,  1, 22,  0.0032,  0.0036,  0.0098,  0.0018, -0.0032, -0.0031,  0.20,   3.1
2324,190752.400,  35.668587988, 139.790694023,   39.0853,  2, 23,  0.2996,  0.3376,  0.8852,  0.1830, -0.2899, -0.2630,  0.40,   2.1
2324,190752.600,  35.668590286, 139.790692933,   39.0985,  2, 24,  0.2974,  0.3313,  0.8684,  0.1764, -0.3085, -0.2746,  0.60,   1.7
2324,190752.800,  35.668593141, 139.790692788,   39.1691,  2, 24,  0.2941,  0.3319,  0.8827,  0.1731, -0.2970, -0.2703,  0.80,   2.0
2324,190753.000,  35.668594426, 139.790691176,   39.2504,  2, 25,  0.2924,  0.3265,  0.8668,  0.1676, -0.3133, -0.2798,  0.00,   2.9
2324,190753.200,  35.668596233, 139.790689455,   39.2265,  2, 25,  0.2796,  0.3085,  0.7987,  0.1376, -0.2494, -0.2223,  0.20,   2.0
2324,190753.400,  35.668598002, 139.790687952,   39.1555,  2, 25,  0.2796,  0.3085,  0.7987,  0.1376, -0.2494, -0.2223,  0.40,   1.2
2324,190753.600,  35.668598887, 139.790685206,   39.0756,  2, 24,  0.2881,  0.3210,  0.8016,  0.1580, -0.2412, -0.2137,  0.60,   1.5
2324,190753.800,  35.668600922, 139.790683591,   39.1019,  2, 24,  0.2881,  0.3210,  0.8016,  0.1580, -0.2412, -0.2137,  0.80,   1.7
2324,190754.000,  35.668603054, 139.790681232,   38.9957,  2, 23,  0.2909,  0.3288,  0.8202,  0.1668, -0.2142, -0.1967,  0.00,   1.3
2324,190754.200,  35.668604813, 139.790679662,   39.0334,  2, 24,  0.2881,  0.3210,  0.8016,  0.1580, -0.2412, -0.2137,  0.20,   1.9
2324,190754.400,  35.668606498, 139.790677895,   39.1132,  2, 25,  0.2841,  0.3197,  0.7882,  0.1623, -0.2498, -0.1967,  0.40,   1.1
2324,190754.600,  35.668608033, 139.790679002,   38.7977,  1, 24,  0.0031,  0.0040,  0.0093,  0.0022, -0.0039, -0.0029,  0.60,   3.5
2324,190754.800,  35.668609464, 139.790677841,   38.7824,  1, 25,  0.0031,  0.0040,  0.0091,  0.0022, -0.0039, -0.0031,  0.80,   5.8
2324,190755.000,  35.668610710, 139.790676546,   38.8021,  1, 25,  0.0031,  0.0040,  0.0093,  0.0021, -0.0038, -0.0033,  0.00,  13.2
2324,190755.200,  35.668611866, 139.790675475,   38.8069,  1, 24,  0.0031,  0.0041,  0.0095,  0.0022, -0.0036, -0.0032,  0.20,   8.6
2324,190755.400,  35.668612869, 139.790674538,   38.8001,  1, 24,  0.0031,  0.0041,  0.0096,  0.0022, -0.0036, -0.0032,  0.40,  20.4
2324,190755.600,  35.668613667, 139.790673726,   38.7945,  1, 25,  0.0031,  0.0040,  0.0092,  0.0021, -0.0039, -0.0034,  0.60,  13.8
2324,190755.800,  35.668614513, 139.790672957,   38.7935,  1, 25,  0.0032,  0.0040,  0.0092,  0.0021, -0.0039, -0.0034,  0.80,  18.5
2324,190756.000,  35.668615527, 139.790672058,   38.7783,  1, 24,  0.0031,  0.0039,  0.0094,  0.0021, -0.0039, -0.0033,  0.00,  22.4
2324,190756.200,  35.668616521, 139.790670958,   38.7751,  1, 24,  0.0031,  0.0040,  0.0094,  0.0021, -0.0039, -0.0033,  0.20,  19.6
2324,190756.400,  35.668617609, 139.790669882,   38.7713,  1, 24,  0.0031,  0.0040,  0.0094,  0.0021, -0.0040, -0.0033,  0.40,  31.4
2324,190756.600,  35.668618741, 139.790669042,   38.7715,  1, 25,  0.0031,  0.0039,  0.0094,  0.0020, -0.0040, -0.0033,  0.60,   4.4
2324,190756.800,  35.668619437, 139.790668177,   38.7945,  1, 25,  0.0031,  0.0039,  0.0095,  0.0020, -0.0040, -0.0033,  0.80,   4.3
2324,190757.000,  35.668618289, 139.790666223,   39.1916,  2, 25,  0.2881,  0.3782,  0.8663,  0.1793, -0.3773, -0.2780,  0.00,   2.2
2324,190757.200,  35.668618492, 139.790665103,   39.4297,  2, 25,  0.2881,  0.3782,  0.8663,  0.1793, -0.3773, -0.2780,  0.20,   1.6
2324,190757.400,  35.668621077, 139.790666727,   38.7586,  1, 25,  0.0035,  0.0045,  0.0114,  0.0027, -0.0055, -0.0046,  0.40,  10.0
2324,190757.600,  35.668621353, 139.790666461,   38.7607,  1, 24,  0.0036,  0.0045,  0.0118,  0.0028, -0.0055, -0.0049,  0.60,   8.0
2324,190757.800,  35.668621544, 139.790666349,   38.7544,  1, 24,  0.0036,  0.0043,  0.0118,  0.0026, -0.0054, -0.0048,  0.80,   6.2
2324,190758.000,  35.668621688, 139.790666238,   38.7488,  1, 25,  0.0035,  0.0042,  0.0113,  0.0026, -0.0052, -0.0048,  0.00,   4.3
2324,190758.200,  35.668621950, 139.790665993,   38.7384,  1, 25,  0.0035,  0.0042,  0.0113,  0.0026, -0.0052, -0.0048,  0.20,   4.4
2324,190758.400,  35.668622309, 139.790665681,   38.7324,  1, 26,  0.0034,  0.0043,  0.0110,  0.0026, -0.0052, -0.0045,  0.40,   4.5
2324,190758.600,  35.668622727, 139.790665220,   38.7466,  1, 25,  0.0035,  0.0043,  0.0113,  0.0026, -0.0052, -0.0048,  0.60,   4.6
2324,190758.800,  35.668623208, 139.790664749,   38.7354,  1, 26,  0.0034,  0.0043,  0.0111,  0.0026, -0.0052, -0.0046,  0.80,   5.1
2324,190759.000,  35.668623718, 139.790664221,   38.7232,  1, 25,  0.0035,  0.0042,  0.0113,  0.0026, -0.0052, -0.0048,  0.00,   6.8
2324,190759.200,  35.668624235, 139.790663679,   38.7233,  1, 25,  0.0035,  0.0042,  0.0113,  0.0026, -0.0052, -0.0048,  0.20,   5.8
2324,190759.400,  35.668624946, 139.790663065,   38.7034,  1, 23,  0.0035,  0.0043,  0.0117,  0.0026, -0.0053, -0.0048,  0.40,   6.9
2324,190759.600,  35.668625737, 139.790662230,   38.7124,  1, 23,  0.0035,  0.0043,  0.0117,  0.0026, -0.0053, -0.0048,  0.60,   9.5
2324,190759.800,  35.668626703, 139.790661287,   38.7170,  1, 24,  0.0034,  0.0037,  0.0107,  0.0021, -0.0043, -0.0043,  0.80,   7.4
2324,190760.000,  35.668627832, 139.790660244,   38.6955,  1, 23,  0.0035,  0.0043,  0.0116,  0.0025, -0.0053, -0.0048,  0.00,  10.6
2324,190760.200,  35.668629215, 139.790658855,   38.7001,  1, 24,  0.0034,  0.0037,  0.0106,  0.0021, -0.0042, -0.0043,  0.20,   9.7
2324,190760.400,  35.668630838, 139.790657072,   38.7059,  1, 26,  0.0033,  0.0036,  0.0103,  0.0021, -0.0041, -0.0043,  0.40,   9.4
2324,190760.600,  35.668632761, 139.790655265,   38.6846,  1, 25,  0.0035,  0.0042,  0.0113,  0.0025, -0.0051, -0.0048,  0.60,   9.6
2324,190760.800,  35.668634748, 139.790653173,   38.6824,  1, 25,  0.0032,  0.0038,  0.0095,  0.0017, -0.0036, -0.0038,  0.80,   7.1
2324,190761.000,  35.668636804, 139.790651121,   38.6620,  1, 26,  0.0032,  0.0038,  0.0093,  0.0017, -0.0035, -0.0038,  0.00,   3.7
2324,190761.200,  35.668638925, 139.790649064,   38.6686,  1, 25,  0.0032,  0.0038,  0.0095,  0.0017, -0.0036, -0.0038,  0.20,   7.7
2324,190761.400,  35.668640995, 139.790646940,   38.6661,  1, 27,  0.0030,  0.0035,  0.0082,  0.0011, -0.0026, -0.0031,  0.40,   3.4
2324,190761.600,  35.668641634, 139.790642553,   39.4513,  2, 27,  0.2866,  0.3425,  0.7783,  0.1146, -0.2571, -0.2916,  0.60,   2.9
2324,190761.800,  35.668644998, 139.790642615,   38.6668,  1, 26,  0.0030,  0.0036,  0.0085,  0.0011, -0.0027, -0.0030,  0.80,   6.8
2324,190762.000,  35.668646987, 139.790640305,   38.6715,  1, 26,  0.0030,  0.0035,  0.0084,  0.0011, -0.0027, -0.0030,  0.00,   3.5
2324,190762.200,  35.668648975, 139.790638047,   38.6573,  1, 26,  0.0030,  0.0035,  0.0084,  0.0011, -0.0027, -0.0030,  0.20,   6.0
2324,190762.400,  35.668650943, 139.790635737,   38.6392,  1, 26,  0.0030,  0.0035,  0.0084,  0.0011, -0.0027, -0.0030,  0.40,   5.8
2324,190762.600,  35.668652793, 139.790633396,   38.6280,  1, 27,  0.0030,  0.0035,  0.0081,  0.0012, -0.0023, -0.0031,  0.60,   5.8
2324,190762.800,  35.668654482, 139.790631168,   38.6298,  1, 27,  0.0030,  0.0035,  0.0082,  0.0012, -0.0023, -0.0031,  0.80,   6.0
2324,190763.000,  35.668656292, 139.790629228,   38.6185,  1, 26,  0.0030,  0.0035,  0.0084,  0.0011, -0.0027, -0.0030,  0.00,   8.2
2324,190763.200,  35.668657555, 139.790626856,   38.6161,  1, 26,  0.0030,  0.0035,  0.0084,  0.0011, -0.0027, -0.0030,  0.20,   7.7
2324,190763.400,  35.668658809, 139.790625390,   38.6243,  1, 26,  0.0030,  0.0035,  0.0084,  0.0011, -0.0027, -0.0030,  0.40,   8.0
2324,190763.600,  35.668659857, 139.790623724,   38.6251,  1, 26,  0.0030,  0.0036,  0.0084,  0.0011, -0.0027, -0.0030,  0.60,   9.7
2324,190763.800,  35.668660751, 139.790622414,   38.6319,  1, 26,  0.0030,  0.0036,  0.0085,  0.0011, -0.0027, -0.0030,  0.80,  10.1
2324,190764.000,  35.668661636, 139.790621050,   38.6312,  1, 26,  0.0030,  0.0035,  0.0084,  0.0011, -0.0027, -0.0030,  0.00,   9.4
2324,190764.200,  35.668662483, 139.790619679,   38.6304,  1, 26,  0.0030,  0.0035,  0.0084,  0.0011, -0.0027, -0.0030,  0.20,   5.6
2324,190764.400,  35.668663320, 139.790618329,   38.6311,  1, 27,  0.0030,  0.0033,  0.0082,  0.0009, -0.0021, -0.0029,  0.40,   5.7
2324,190764.600,  35.668663993, 139.790617146,   38.6346,  1, 26,  0.0030,  0.0036,  0.0084,  0.0011, -0.0027, -0.0030,  0.60,   6.1
2324,190764.800,  35.668664555, 139.790616096,   38.6388,  1, 27,  0.0030,  0.0035,  0.0082,  0.0012, -0.0023, -0.0031,  0.80,   7.6
2324,190765.000,  35.668665202, 139.790615094,   38.6361,  1, 28,  0.0029,  0.0033,  0.0076,  0.0008, -0.0015, -0.0027,  0.00,   5.5
2324,190765.200,  35.668665749, 139.790614066,   38.6303,  1, 28,  0.0029,  0.0033,  0.0076,  0.0008, -0.0015, -0.0027,  0.20,   8.9
2324,190765.400,  35.668666186, 139.790613221,   38.6261,  1, 28,  0.0029,  0.0033,  0.0076,  0.0008, -0.0015, -0.0027,  0.40,  12.3
2324,190765.600,  35.668666575, 139.790612480,   38.6191,  1, 28,  0.0029,  0.0032,  0.0075,  0.0008, -0.0011, -0.0028,  0.60,  12.6
2324,190765.800,  35.668666847, 139.790611905,   38.6204,  1, 29,  0.0029,  0.0031,  0.0075,  0.0007, -0.0007, -0.0028,  0.80,   4.5
2324,190766.000,  35.668667025, 139.790611524,   38.6267,  1, 29,  0.0028,  0.0030,  0.0074,  0.0007, -0.0007, -0.0027,  0.00,   5.0
2324,190766.200,  35.668667126, 139.790611317,   38.6200,  1, 29,  0.0028,  0.0030,  0.0074,  0.0007, -0.0007, -0.0027,  0.20,   5.2
2324,190766.400,  35.668667240, 139.790611143,   38.6174,  1, 30,  0.0027,  0.0029,  0.0073, -0.0002,  0.0006, -0.0026,  0.40,   5.3
2324,190766.600,  35.668667424, 139.790610811,   38.6158,  1, 29,  0.0028,  0.0031,  0.0074,  0.0002, -0.0005, -0.0026,  0.60,  10.1
2324,190766.800,  35.668667653, 139.790610301,   38.6167,  1, 29,  0.0028,  0.0031,  0.0074,  0.0001, -0.0005, -0.0026,  0.80,   8.9
2324,190767.000,  35.668667930, 139.790609761,   38.6188,  1, 29,  0.0027,  0.0031,  0.0073,  0.0002, -0.0005, -0.0026,  0.00,  12.4
2324,190767.200,  35.668668369, 139.790608798,   38.6131,  1, 29,  0.0027,  0.0031,  0.0074,  0.0002, -0.0005, -0.0026,  0.20,   8.3
2324,190767.400,  35.668669011, 139.790607687,   38.5983,  1, 28,  0.0029,  0.0031,  0.0079,  0.0007, -0.0014, -0.0030,  0.40,  10.4
2324,190767.600,  35.668669867, 139.790606184,   38.5777,  1, 28,  0.0029,  0.0032,  0.0079,  0.0007, -0.0014, -0.0030,  0.60,   6.0
2324,190767.800,  35.668670436, 139.790604034,   38.6035,  1, 29,  0.0028,  0.0031,  0.0074,  0.0001, -0.0005, -0.0026,  0.80,  10.8
2324,190768.000,  35.668671282, 139.790602044,   38.5795,  1, 29,  0.0027,  0.0031,  0.0073,  0.0002, -0.0005, -0.0026,  0.00,   8.9
2324,190768.200,  35.668671959, 139.790599472,   38.5623,  1, 29,  0.0027,  0.0031,  0.0074,  0.0002, -0.0005, -0.0026,  0.20,   8.2
